[{"address":"7902 Tysons One Pl","latitude":38.919501246,"longitude":-77.2205501537,"labeledLatLngs":[{"label":"display","lat":38.919501246,"lng":-77.2205501537}],"cc":"US","city":"McLean","state":"VA","country":"United States","formattedAddress":["7902 Tysons One Pl","McLean, VA","United States"],"crossStreet":null,"postalCode":null,"neighborhood":null,"geolocation":{"type":"Point","coordinates":[-77.2205501537,38.919501246]}},{"address":"1550 N Kingsbury St","latitude":41.9091271435,"longitude":-87.6528400085,"labeledLatLngs":[{"label":"display","lat":41.9091271435,"lng":-87.6528400085}],"cc":"US","city":"Chicago","state":"IL","country":"United States","formattedAddress":["1550 N Kingsbury St (Whole Foods)","Chicago, IL 60642","United States"],"crossStreet":"Whole Foods","postalCode":"60642","neighborhood":null,"geolocation":{"type":"Point","coordinates":[-87.6528400085,41.9091271435]}},{"address":"2341 Collins Ave","latitude":25.7995344739,"longitude":-80.1268624738,"labeledLatLngs":[{"label":"display","lat":25.7995344739,"lng":-80.1268624738}],"cc":"US","city":"Miami Beach","state":"FL","country":"United States","formattedAddress":["2341 Collins Ave","Miami Beach, FL 33139","United States"],"crossStreet":null,"postalCode":"33139","neighborhood":null,"geolocation":{"type":"Point","coordinates":[-80.1268624738,25.7995344739]}},{"address":"2847 Park Ave","latitude":33.6963976547,"longitude":-117.8259524887,"labeledLatLngs":[{"label":"display","lat":33.6963976547,"lng":-117.8259524887}],"cc":"US","city":"Tustin","state":"CA","country":"United States","formattedAddress":["2847 Park Ave","Tustin, CA 92782","United States"],"crossStreet":null,"postalCode":"92782","neighborhood":null,"geolocation":{"type":"Point","coordinates":[-117.8259524887,33.6963976547]}},{"address":"111 Market St","latitude":40.4390006892,"longitude":-80.0036707054,"labeledLatLngs":[{"label":"display","lat":40.4390006892,"lng":-80.0036707054},{"label":"entrance","lat":40.438826,"lng":-80.0039}],"cc":"US","city":"Pittsburgh","state":"PA","country":"United States","formattedAddress":["111 Market St","Pittsburgh, PA 15222","United States"],"crossStreet":null,"postalCode":"15222","neighborhood":null,"geolocation":{"type":"Point","coordinates":[-80.0036707054,40.4390006892]}},{"address":"at Citi Field","latitude":40.7564456975,"longitude":-73.8463803643,"labeledLatLngs":[{"label":"display","lat":40.7564456975,"lng":-73.8463803643}],"cc":"US","city":"Flushing","state":"NY","country":"United States","formattedAddress":["at Citi Field","Flushing, NY 11368","United States"],"crossStreet":null,"postalCode":"11368","neighborhood":null,"geolocation":{"type":"Point","coordinates":[-73.8463803643,40.7564456975]}},{"address":"8525 Irvine Center Drive","latitude":33.6461403878,"longitude":-117.7444217771,"labeledLatLngs":[{"label":"display","lat":33.6461403878,"lng":-117.7444217771}],"cc":"US","city":"Irvine","state":"CA","country":"United States","formattedAddress":["8525 Irvine Center Drive","Irvine, CA 92618","United States"],"crossStreet":null,"postalCode":"92618","neighborhood":null,"geolocation":{"type":"Point","coordinates":[-117.7444217771,33.6461403878]}},{"address":"2550 Park Ave","latitude":33.698601084,"longitude":-117.8263782496,"labeledLatLngs":[{"label":"display","lat":33.698601084,"lng":-117.8263782496},{"label":"entrance","lat":33.698493,"lng":-117.826442}],"cc":"US","city":"Tustin","state":"CA","country":"United States","formattedAddress":["2550 Park Ave (at Jamboree & Barranca)","Tustin, CA 92782","United States"],"crossStreet":"at Jamboree & Barranca","postalCode":"92782","neighborhood":null,"geolocation":{"type":"Point","coordinates":[-117.8263782496,33.698601084]}},{"address":"1315 NW Mall St #3","latitude":47.5438846897,"longitude":-122.0587351124,"labeledLatLngs":[{"label":"display","lat":47.5438846897,"lng":-122.0587351124},{"label":"entrance","lat":47.544192,"lng":-122.058708}],"cc":"US","city":"Issaquah","state":"WA","country":"United States","formattedAddress":["1315 NW Mall St #3 (btwn 17th Ave NW & 12th Ave NW)","Issaquah, WA 98027","United States"],"crossStreet":"btwn 17th Ave NW & 12th Ave NW","postalCode":"98027","neighborhood":null,"geolocation":{"type":"Point","coordinates":[-122.0587351124,47.5438846897]}},{"address":"554 Medford Ave","latitude":40.7877097622,"longitude":-73.0095053535,"labeledLatLngs":[{"label":"display","lat":40.7877097622,"lng":-73.0095053535}],"cc":"US","city":"Patchogue","state":"NY","country":"United States","formattedAddress":["554 Medford Ave (Shaber Rd.)","Patchogue, NY 11772","United States"],"crossStreet":"Shaber Rd.","postalCode":"11772","neighborhood":null,"geolocation":{"type":"Point","coordinates":[-73.0095053535,40.7877097622]}},{"address":"Kroger","latitude":33.7423094468,"longitude":-84.3598777056,"labeledLatLngs":[{"label":"display","lat":33.7423094468,"lng":-84.3598777056}],"cc":"US","city":"Atlanta","state":"GA","country":"United States","formattedAddress":["Kroger","Atlanta, GA 30316","United States"],"crossStreet":null,"postalCode":"30316","neighborhood":null,"geolocation":{"type":"Point","coordinates":[-84.3598777056,33.7423094468]}},{"address":"418 Main St","latitude":40.9869921947,"longitude":-75.1902770469,"labeledLatLngs":[{"label":"display","lat":40.9869921947,"lng":-75.1902770469}],"cc":"US","city":"Stroudsburg","state":"PA","country":"United States","formattedAddress":["418 Main St","Stroudsburg, PA 18360","United States"],"crossStreet":null,"postalCode":"18360","neighborhood":null,"geolocation":{"type":"Point","coordinates":[-75.1902770469,40.9869921947]}},{"address":"292 Moreland Ave NE","latitude":33.762132693,"longitude":-84.3497011005,"labeledLatLngs":[{"label":"display","lat":33.762132693,"lng":-84.3497011005},{"label":"entrance","lat":33.762408,"lng":-84.349664}],"cc":"US","city":"Atlanta","state":"GA","country":"United States","formattedAddress":["292 Moreland Ave NE (at Austin Ave.)","Atlanta, GA 30307","United States"],"crossStreet":"at Austin Ave.","postalCode":"30307","neighborhood":null,"geolocation":{"type":"Point","coordinates":[-84.3497011005,33.762132693]}},{"address":"Terminal 3, Rotunda","latitude":41.975580739,"longitude":-87.9029973018,"labeledLatLngs":[{"label":"display","lat":41.975580739,"lng":-87.9029973018}],"cc":"US","city":"Chicago","state":"IL","country":"United States","formattedAddress":["Terminal 3, Rotunda (ORD Airport)","Chicago, IL 60666","United States"],"crossStreet":"ORD Airport","postalCode":"60666","neighborhood":null,"geolocation":{"type":"Point","coordinates":[-87.9029973018,41.975580739]}},{"address":"816 FM 1441","latitude":30.1748356863,"longitude":-97.2652094217,"labeledLatLngs":[{"label":"display","lat":30.1748356863,"lng":-97.2652094217}],"cc":"US","city":"Bastrop","state":"TX","country":"United States","formattedAddress":["816 FM 1441","Bastrop, TX 78602","United States"],"crossStreet":null,"postalCode":"78602","neighborhood":null,"geolocation":{"type":"Point","coordinates":[-97.2652094217,30.1748356863]}},{"address":"34516 Lake Shore Blvd","latitude":41.66266,"longitude":-81.448757,"labeledLatLngs":[{"label":"display","lat":41.66266,"lng":-81.448757},{"label":"entrance","lat":41.6628,"lng":-81.449286}],"cc":"US","city":"Eastlake","state":"OH","country":"United States","formattedAddress":["34516 Lake Shore Blvd (at Eastlake Plaza)","Eastlake, OH 44095","United States"],"crossStreet":"at Eastlake Plaza","postalCode":"44095","neighborhood":null,"geolocation":{"type":"Point","coordinates":[-81.448757,41.66266]}},{"address":"407 North Virginia Street","latitude":39.53046138,"longitude":-119.81523947,"labeledLatLngs":[{"label":"display","lat":39.53046138,"lng":-119.81523947}],"cc":"US","city":"Reno","state":"NV","country":"United States","formattedAddress":["407 North Virginia Street","Reno, NV 89501","United States"],"crossStreet":null,"postalCode":"89501","neighborhood":null,"geolocation":{"type":"Point","coordinates":[-119.81523947,39.53046138]}},{"address":"531 Joralemon St","latitude":40.8014477221,"longitude":-74.1650071667,"labeledLatLngs":[{"label":"display","lat":40.8014477221,"lng":-74.1650071667},{"label":"entrance","lat":40.801404,"lng":-74.165103}],"cc":"US","city":"Belleville","state":"NJ","country":"United States","formattedAddress":["531 Joralemon St","Belleville, NJ 07109","United States"],"crossStreet":null,"postalCode":"07109","neighborhood":null,"geolocation":{"type":"Point","coordinates":[-74.1650071667,40.8014477221]}},{"address":"665 Washington St","latitude":42.3517198256,"longitude":-71.0628195907,"labeledLatLngs":[{"label":"display","lat":42.3517198256,"lng":-71.0628195907}],"cc":"US","city":"Boston","state":"MA","country":"United States","formattedAddress":["665 Washington St","Boston, MA 02111","United States"],"crossStreet":null,"postalCode":"02111","neighborhood":null,"geolocation":{"type":"Point","coordinates":[-71.0628195907,42.3517198256]}},{"address":"8420 Costa Verda Dr","latitude":33.748370251,"longitude":-78.8068301244,"labeledLatLngs":[{"label":"display","lat":33.748370251,"lng":-78.8068301244}],"cc":"US","city":"Myrtle Beach","state":"SC","country":"United States","formattedAddress":["8420 Costa Verda Dr","Myrtle Beach, SC 29572","United States"],"crossStreet":null,"postalCode":"29572","neighborhood":null,"geolocation":{"type":"Point","coordinates":[-78.8068301244,33.748370251]}},{"address":"3595 S Las Vegas Blvd","latitude":36.1151323818,"longitude":-115.1719672804,"labeledLatLngs":[{"label":"display","lat":36.1151323818,"lng":-115.1719672804}],"cc":"US","city":"Paradise","state":"NV","country":"United States","formattedAddress":["3595 S Las Vegas Blvd","Paradise, NV 89109","United States"],"crossStreet":null,"postalCode":"89109","neighborhood":null,"geolocation":{"type":"Point","coordinates":[-115.1719672804,36.1151323818]}},{"address":"3923 Cedar Springs Rd","latitude":32.8109478038,"longitude":-96.8112353927,"labeledLatLngs":[{"label":"display","lat":32.8109478038,"lng":-96.8112353927},{"label":"entrance","lat":32.810797,"lng":-96.81117}],"cc":"US","city":"Dallas","state":"TX","country":"United States","formattedAddress":["3923 Cedar Springs Rd (at Throckmorton St)","Dallas, TX 75219","United States"],"crossStreet":"at Throckmorton St","postalCode":"75219","neighborhood":"Oak Lawn","geolocation":{"type":"Point","coordinates":[-96.8112353927,32.8109478038]}},{"address":"7585 S Northshore Dr","latitude":35.9043974484,"longitude":-84.0200528106,"labeledLatLngs":[{"label":"display","lat":35.9043974484,"lng":-84.0200528106}],"cc":"US","city":"Knoxville","state":"TN","country":"United States","formattedAddress":["7585 S Northshore Dr","Knoxville, TN 37919","United States"],"crossStreet":null,"postalCode":"37919","neighborhood":null,"geolocation":{"type":"Point","coordinates":[-84.0200528106,35.9043974484]}},{"address":"2500 Wasser Ter","latitude":38.9556784159,"longitude":-77.427639875,"labeledLatLngs":[{"label":"display","lat":38.9556784159,"lng":-77.427639875}],"cc":"US","city":"Herndon","state":"VA","country":"United States","formattedAddress":["2500 Wasser Ter","Herndon, VA 20171","United States"],"crossStreet":null,"postalCode":"20171","neighborhood":null,"geolocation":{"type":"Point","coordinates":[-77.427639875,38.9556784159]}},{"address":null,"latitude":38.736612,"longitude":-90.353751,"labeledLatLngs":[{"label":"display","lat":38.736612,"lng":-90.353751}],"cc":"US","city":"St Louis","state":"MO","country":"United States","formattedAddress":["Gate B10","St Louis, MO 63134","United States"],"crossStreet":"Gate B10","postalCode":"63134","neighborhood":null,"geolocation":{"type":"Point","coordinates":[-90.353751,38.736612]}},{"address":"423 Poinsettia Ave","latitude":27.979242758,"longitude":-82.8262495995,"labeledLatLngs":[{"label":"display","lat":27.979242758,"lng":-82.8262495995}],"cc":"US","city":"Clearwater Beach","state":"FL","country":"United States","formattedAddress":["423 Poinsettia Ave (1\/4 block from Round-about)","Clearwater Beach, FL 33767","United States"],"crossStreet":"1\/4 block from Round-about","postalCode":"33767","neighborhood":null,"geolocation":{"type":"Point","coordinates":[-82.8262495995,27.979242758]}},{"address":null,"latitude":39.8580488933,"longitude":-104.6715448087,"labeledLatLngs":[{"label":"display","lat":39.8580488933,"lng":-104.6715448087}],"cc":"US","city":null,"state":"Colorado","country":"United States","formattedAddress":["at DEN","Colorado","United States"],"crossStreet":"at DEN","postalCode":null,"neighborhood":null,"geolocation":{"type":"Point","coordinates":[-104.6715448087,39.8580488933]}},{"address":"500 Divisadero St","latitude":37.7740249962,"longitude":-122.4374303918,"labeledLatLngs":[{"label":"display","lat":37.7740249962,"lng":-122.4374303918}],"cc":"US","city":"San Francisco","state":"CA","country":"United States","formattedAddress":["500 Divisadero St (at Fell St)","San Francisco, CA 94117","United States"],"crossStreet":"at Fell St","postalCode":"94117","neighborhood":null,"geolocation":{"type":"Point","coordinates":[-122.4374303918,37.7740249962]}},{"address":"2385 Fort St","latitude":42.1460241475,"longitude":-83.187407632,"labeledLatLngs":[{"label":"display","lat":42.1460241475,"lng":-83.187407632},{"label":"entrance","lat":42.145995,"lng":-83.187479}],"cc":"US","city":"Trenton","state":"MI","country":"United States","formattedAddress":["2385 Fort St (at Marie Street)","Trenton, MI 48183","United States"],"crossStreet":"at Marie Street","postalCode":"48183","neighborhood":null,"geolocation":{"type":"Point","coordinates":[-83.187407632,42.1460241475]}},{"address":"3620 N Barbee Rd","latitude":41.2882314722,"longitude":-85.7154000216,"labeledLatLngs":[{"label":"display","lat":41.2882314722,"lng":-85.7154000216}],"cc":"US","city":"Warsaw","state":"IN","country":"United States","formattedAddress":["3620 N Barbee Rd","Warsaw, IN 46582","United States"],"crossStreet":null,"postalCode":"46582","neighborhood":null,"geolocation":{"type":"Point","coordinates":[-85.7154000216,41.2882314722]}},{"address":"Terminal C","latitude":42.3662551311,"longitude":-71.0166940943,"labeledLatLngs":[{"label":"display","lat":42.3662551311,"lng":-71.0166940943}],"cc":"US","city":"Boston","state":"MA","country":"United States","formattedAddress":["Terminal C (at BOS Airport)","Boston, MA 02128","United States"],"crossStreet":"at BOS Airport","postalCode":"02128","neighborhood":"Logan Airport","geolocation":{"type":"Point","coordinates":[-71.0166940943,42.3662551311]}},{"address":"4441 Collins Ave","latitude":25.8176784857,"longitude":-80.1225804311,"labeledLatLngs":[{"label":"display","lat":25.8176784857,"lng":-80.1225804311}],"cc":"US","city":"Miami Beach","state":"FL","country":"United States","formattedAddress":["4441 Collins Ave","Miami Beach, FL 33140","United States"],"crossStreet":null,"postalCode":"33140","neighborhood":null,"geolocation":{"type":"Point","coordinates":[-80.1225804311,25.8176784857]}},{"address":"United Terminal","latitude":33.9416101695,"longitude":-118.3995502129,"labeledLatLngs":[{"label":"display","lat":33.9416101695,"lng":-118.3995502129}],"cc":"US","city":"Los Angeles","state":"CA","country":"United States","formattedAddress":["United Terminal (LAX)","Los Angeles, CA 90045","United States"],"crossStreet":"LAX","postalCode":"90045","neighborhood":null,"geolocation":{"type":"Point","coordinates":[-118.3995502129,33.9416101695]}},{"address":"4993 Niagara Ave Ste 103","latitude":32.7458900243,"longitude":-117.2516845177,"labeledLatLngs":[{"label":"display","lat":32.7458900243,"lng":-117.2516845177}],"cc":"US","city":"San Diego","state":"CA","country":"United States","formattedAddress":["4993 Niagara Ave Ste 103 (at Bacon St)","San Diego, CA 92107","United States"],"crossStreet":"at Bacon St","postalCode":"92107","neighborhood":null,"geolocation":{"type":"Point","coordinates":[-117.2516845177,32.7458900243]}},{"address":"5545 Reseda Blvd","latitude":34.171051,"longitude":-118.53629404,"labeledLatLngs":[{"label":"display","lat":34.171051,"lng":-118.53629404}],"cc":"US","city":"Tarzana","state":"CA","country":"United States","formattedAddress":["5545 Reseda Blvd (Burbank Blvd)","Tarzana, CA 91356","United States"],"crossStreet":"Burbank Blvd","postalCode":"91356","neighborhood":null,"geolocation":{"type":"Point","coordinates":[-118.53629404,34.171051]}},{"address":"998 Guerrero St","latitude":37.7551760569,"longitude":-122.4232475424,"labeledLatLngs":[{"label":"display","lat":37.7551760569,"lng":-122.4232475424},{"label":"entrance","lat":37.755274,"lng":-122.423347}],"cc":"US","city":"San Francisco","state":"CA","country":"United States","formattedAddress":["998 Guerrero St (at 22nd St)","San Francisco, CA 94110","United States"],"crossStreet":"at 22nd St","postalCode":"94110","neighborhood":null,"geolocation":{"type":"Point","coordinates":[-122.4232475424,37.7551760569]}},{"address":"1729 E US Highway 20","latitude":41.6881521117,"longitude":-86.8614512072,"labeledLatLngs":[{"label":"display","lat":41.6881521117,"lng":-86.8614512072}],"cc":"US","city":"Michigan City","state":"IN","country":"United States","formattedAddress":["1729 E US Highway 20","Michigan City, IN 46360","United States"],"crossStreet":null,"postalCode":"46360","neighborhood":null,"geolocation":{"type":"Point","coordinates":[-86.8614512072,41.6881521117]}},{"address":"1622 14th Street NW","latitude":38.9121105,"longitude":-77.032167,"labeledLatLngs":[{"label":"display","lat":38.9121105,"lng":-77.032167}],"cc":"US","city":"Washington","state":"D.C.","country":"United States","formattedAddress":["1622 14th Street NW (btwn Corcoran & R St NW)","Washington, D.C. 20009","United States"],"crossStreet":"btwn Corcoran & R St NW","postalCode":"20009","neighborhood":"Logan Circle - Shaw","geolocation":{"type":"Point","coordinates":[-77.032167,38.9121105]}},{"address":"901 Broadhollow Road","latitude":40.7259985,"longitude":-73.4233938,"labeledLatLngs":[{"label":"display","lat":40.7259985,"lng":-73.4233938},{"label":"entrance","lat":40.727692,"lng":-73.423227}],"cc":"US","city":"Farmingdale","state":"NY","country":"United States","formattedAddress":["901 Broadhollow Road (at Michael Ave)","Farmingdale, NY 11735","United States"],"crossStreet":"at Michael Ave","postalCode":"11735","neighborhood":null,"geolocation":{"type":"Point","coordinates":[-73.4233938,40.7259985]}},{"address":"1901 North Haskell Avenue","latitude":32.8014622161,"longitude":-96.7857933503,"labeledLatLngs":[{"label":"display","lat":32.8014622161,"lng":-96.7857933503},{"label":"entrance","lat":32.801392,"lng":-96.785687}],"cc":"US","city":"Dallas","state":"TX","country":"United States","formattedAddress":["1901 North Haskell Avenue (Munger)","Dallas, TX 75204","United States"],"crossStreet":"Munger","postalCode":"75204","neighborhood":null,"geolocation":{"type":"Point","coordinates":[-96.7857933503,32.8014622161]}},{"address":"3304 W Broadway Business Park Ct","latitude":38.9534926741,"longitude":-92.386239042,"labeledLatLngs":[{"label":"display","lat":38.9534926741,"lng":-92.386239042}],"cc":"US","city":"Columbia","state":"MO","country":"United States","formattedAddress":["3304 W Broadway Business Park Ct","Columbia, MO 65203","United States"],"crossStreet":null,"postalCode":"65203","neighborhood":null,"geolocation":{"type":"Point","coordinates":[-92.386239042,38.9534926741]}},{"address":"45-58 Vernon Blvd","latitude":40.7469092776,"longitude":-73.952759491,"labeledLatLngs":[{"label":"display","lat":40.7469092776,"lng":-73.952759491}],"cc":"US","city":"Queens","state":"NY","country":"United States","formattedAddress":["45-58 Vernon Blvd (at 46th Ave)","Long Island City, NY 11101","United States"],"crossStreet":"at 46th Ave","postalCode":"11101","neighborhood":null,"geolocation":{"type":"Point","coordinates":[-73.952759491,40.7469092776]}},{"address":"185 Christopher St","latitude":40.7326450066,"longitude":-74.0097278258,"labeledLatLngs":[{"label":"display","lat":40.7326450066,"lng":-74.0097278258},{"label":"entrance","lat":40.732612,"lng":-74.009717}],"cc":"US","city":"New York","state":"NY","country":"United States","formattedAddress":["185 Christopher St (at Weehawken St.)","New York, NY 10014","United States"],"crossStreet":"at Weehawken St.","postalCode":"10014","neighborhood":null,"geolocation":{"type":"Point","coordinates":[-74.0097278258,40.7326450066]}},{"address":"1025 N Fillmore St","latitude":38.8853854428,"longitude":-77.0926523209,"labeledLatLngs":[{"label":"display","lat":38.8853854428,"lng":-77.0926523209}],"cc":"US","city":"Arlington","state":"VA","country":"United States","formattedAddress":["1025 N Fillmore St","Arlington, VA 22201","United States"],"crossStreet":null,"postalCode":"22201","neighborhood":null,"geolocation":{"type":"Point","coordinates":[-77.0926523209,38.8853854428]}},{"address":"108 Avenue B","latitude":40.7250140884,"longitude":-73.9813296623,"labeledLatLngs":[{"label":"display","lat":40.7250140884,"lng":-73.9813296623},{"label":"entrance","lat":40.725005,"lng":-73.981371}],"cc":"US","city":"New York","state":"NY","country":"United States","formattedAddress":["108 Avenue B (at E 7th St)","New York, NY 10009","United States"],"crossStreet":"at E 7th St","postalCode":"10009","neighborhood":null,"geolocation":{"type":"Point","coordinates":[-73.9813296623,40.7250140884]}},{"address":"697 10th Ave","latitude":40.7631820985,"longitude":-73.992890056,"labeledLatLngs":[{"label":"display","lat":40.7631820985,"lng":-73.992890056},{"label":"entrance","lat":40.763213,"lng":-73.993059}],"cc":"US","city":"New York","state":"NY","country":"United States","formattedAddress":["697 10th Ave (btwn W 47th & W 48th St)","New York, NY 10036","United States"],"crossStreet":"btwn W 47th & W 48th St","postalCode":"10036","neighborhood":null,"geolocation":{"type":"Point","coordinates":[-73.992890056,40.7631820985]}},{"address":"2570 Kalakaua Ave","latitude":21.272175,"longitude":-157.822762,"labeledLatLngs":[{"label":"display","lat":21.272175,"lng":-157.822762}],"cc":"US","city":"Honolulu","state":"HI","country":"United States","formattedAddress":["2570 Kalakaua Ave (at Paokalani Ave)","Honolulu, HI 96815","United States"],"crossStreet":"at Paokalani Ave","postalCode":"96815","neighborhood":null,"geolocation":{"type":"Point","coordinates":[-157.822762,21.272175]}},{"address":"134 Kapahulu Ave, 2nd Floor","latitude":21.271717632,"longitude":-157.8217343995,"labeledLatLngs":[{"label":"display","lat":21.271717632,"lng":-157.8217343995}],"cc":"US","city":"Honolulu","state":"HI","country":"United States","formattedAddress":["134 Kapahulu Ave, 2nd Floor (Enter Through Lobby of Waikiki Grand Hotel)","Honolulu, HI 96815","United States"],"crossStreet":"Enter Through Lobby of Waikiki Grand Hotel","postalCode":"96815","neighborhood":null,"geolocation":{"type":"Point","coordinates":[-157.8217343995,21.271717632]}},{"address":"10 Washington Blvd","latitude":33.9789435657,"longitude":-118.4667243901,"labeledLatLngs":[{"label":"display","lat":33.9789435657,"lng":-118.4667243901}],"cc":"US","city":"Venice","state":"CA","country":"United States","formattedAddress":["10 Washington Blvd (at Ocean Front Walk)","Venice, CA 90292","United States"],"crossStreet":"at Ocean Front Walk","postalCode":"90292","neighborhood":null,"geolocation":{"type":"Point","coordinates":[-118.4667243901,33.9789435657]}},{"address":"1432 Valencia St","latitude":37.7499769132,"longitude":-122.4205922304,"labeledLatLngs":[{"label":"display","lat":37.7499769132,"lng":-122.4205922304},{"label":"entrance","lat":37.749915,"lng":-122.420607}],"cc":"US","city":"San Francisco","state":"CA","country":"United States","formattedAddress":["1432 Valencia St (btwn 25th & 26th)","San Francisco, CA 94110","United States"],"crossStreet":"btwn 25th & 26th","postalCode":"94110","neighborhood":null,"geolocation":{"type":"Point","coordinates":[-122.4205922304,37.7499769132]}}]