[{"name":"NorthStar Systems International","category_code":"tech","total_money_raised":29500000,"geolocation":{"type":"Point","coordinates":[-122.40036,37.789551]},"clean_state":"success","latitude":37.789551,"longitude":-122.40036},{"name":"SquareTrade","category_code":"tech","total_money_raised":248000000,"geolocation":{"type":"Point","coordinates":[-122.40036,37.789551]},"clean_state":"success","latitude":37.789551,"longitude":-122.40036},{"name":"Genbook","category_code":"tech","total_money_raised":2200000,"geolocation":{"type":"Point","coordinates":[-122.4007791,37.789902]},"clean_state":"success","latitude":37.789902,"longitude":-122.4007791},{"name":"Lyft","category_code":"tech","total_money_raised":82500000,"geolocation":{"type":"Point","coordinates":[-122.4007846,37.7899027]},"clean_state":"success","latitude":37.7899027,"longitude":-122.4007846},{"name":"Lyft","category_code":"tech","total_money_raised":82500000,"geolocation":{"type":"Point","coordinates":[-122.4007846,37.7899027]},"clean_state":"success","latitude":37.7899027,"longitude":-122.4007846},{"name":"GreenVolts","category_code":"tech","total_money_raised":96800000,"geolocation":{"type":"Point","coordinates":[-122.398669,37.790153]},"clean_state":"success","latitude":37.790153,"longitude":-122.398669},{"name":"Huddler","category_code":"tech","total_money_raised":22800000,"geolocation":{"type":"Point","coordinates":[-122.4013624,37.7893215]},"clean_state":"success","latitude":37.7893215,"longitude":-122.4013624},{"name":"Serious Business","category_code":"tech","total_money_raised":4000000,"geolocation":{"type":"Point","coordinates":[-122.4013624,37.7893215]},"clean_state":"success","latitude":37.7893215,"longitude":-122.4013624},{"name":"Atom Entertainment","category_code":"tech","total_money_raised":22900000,"geolocation":{"type":"Point","coordinates":[-122.401128,37.790964]},"clean_state":"success","latitude":37.790964,"longitude":-122.401128},{"name":"Marketcetera","category_code":"tech","total_money_raised":4000000,"geolocation":{"type":"Point","coordinates":[-122.4008487,37.788864]},"clean_state":"success","latitude":37.788864,"longitude":-122.4008487},{"name":"hi5","category_code":"tech","total_money_raised":52000000,"geolocation":{"type":"Point","coordinates":[-122.400558,37.788668]},"clean_state":"success","latitude":37.788668,"longitude":-122.400558},{"name":"Aruspex","category_code":"tech","total_money_raised":3770000,"geolocation":{"type":"Point","coordinates":[-122.40185,37.790346]},"clean_state":"success","latitude":37.790346,"longitude":-122.40185},{"name":"PlayFirst","category_code":"tech","total_money_raised":37700000,"geolocation":{"type":"Point","coordinates":[-122.40185,37.790346]},"clean_state":"success","latitude":37.790346,"longitude":-122.40185},{"name":"Jobvite","category_code":"tech","total_money_raised":30500000,"geolocation":{"type":"Point","coordinates":[-122.398503,37.789034]},"clean_state":"success","latitude":37.789034,"longitude":-122.398503},{"name":"Involver","category_code":"tech","total_money_raised":11300000,"geolocation":{"type":"Point","coordinates":[-122.401333,37.788653]},"clean_state":"success","latitude":37.788653,"longitude":-122.401333},{"name":"5th Finger","category_code":"tech","total_money_raised":7000000,"geolocation":{"type":"Point","coordinates":[-122.4021988,37.7900992]},"clean_state":"success","latitude":37.7900992,"longitude":-122.4021988},{"name":"Eurekster","category_code":"tech","total_money_raised":6850000,"geolocation":{"type":"Point","coordinates":[-122.40188,37.790992]},"clean_state":"success","latitude":37.790992,"longitude":-122.40188},{"name":"Roost","category_code":"tech","total_money_raised":13500000,"geolocation":{"type":"Point","coordinates":[-122.4020276,37.7891288]},"clean_state":"success","latitude":37.7891288,"longitude":-122.4020276},{"name":"BrightTALK","category_code":"tech","total_money_raised":20500000,"geolocation":{"type":"Point","coordinates":[-122.398126,37.791128]},"clean_state":"success","latitude":37.791128,"longitude":-122.398126},{"name":"Bomgar","category_code":"tech","total_money_raised":11000000,"geolocation":{"type":"Point","coordinates":[-122.398126,37.791128]},"clean_state":"success","latitude":37.791128,"longitude":-122.398126},{"name":"Gydget","category_code":"tech","total_money_raised":1000000,"geolocation":{"type":"Point","coordinates":[-122.398398,37.791733]},"clean_state":"success","latitude":37.791733,"longitude":-122.398398},{"name":"Innotas","category_code":"tech","total_money_raised":21300000,"geolocation":{"type":"Point","coordinates":[-122.3993979,37.787722]},"clean_state":"success","latitude":37.787722,"longitude":-122.3993979},{"name":"Innotas","category_code":"tech","total_money_raised":21300000,"geolocation":{"type":"Point","coordinates":[-122.3993979,37.787722]},"clean_state":"success","latitude":37.787722,"longitude":-122.3993979},{"name":"Glu Mobile","category_code":"tech","total_money_raised":23600000,"geolocation":{"type":"Point","coordinates":[-122.3973539,37.7911371]},"clean_state":"success","latitude":37.7911371,"longitude":-122.3973539},{"name":"HubPages","category_code":"tech","total_money_raised":8000000,"geolocation":{"type":"Point","coordinates":[-122.3991505,37.7876952]},"clean_state":"success","latitude":37.7876952,"longitude":-122.3991505},{"name":"Lolapps","category_code":"tech","total_money_raised":4000000,"geolocation":{"type":"Point","coordinates":[-122.3999719,37.7870923]},"clean_state":"success","latitude":37.7870923,"longitude":-122.3999719},{"name":"Lolapps","category_code":"tech","total_money_raised":4000000,"geolocation":{"type":"Point","coordinates":[-122.3999719,37.7870923]},"clean_state":"success","latitude":37.7870923,"longitude":-122.3999719},{"name":"Curse","category_code":"tech","total_money_raised":12000000,"geolocation":{"type":"Point","coordinates":[-122.399972,37.787092]},"clean_state":"success","latitude":37.787092,"longitude":-122.399972},{"name":"DocVerse","category_code":"tech","total_money_raised":1300000,"geolocation":{"type":"Point","coordinates":[-122.397141,37.788115]},"clean_state":"success","latitude":37.788115,"longitude":-122.397141},{"name":"Playboox","category_code":"tech","total_money_raised":3000000,"geolocation":{"type":"Point","coordinates":[-122.4000192,37.7870283]},"clean_state":"success","latitude":37.7870283,"longitude":-122.4000192},{"name":"TerraPass","category_code":"tech","total_money_raised":5800000,"geolocation":{"type":"Point","coordinates":[-122.397847,37.787445]},"clean_state":"success","latitude":37.787445,"longitude":-122.397847},{"name":"Granicus","category_code":"tech","total_money_raised":10300000,"geolocation":{"type":"Point","coordinates":[-122.397847,37.787445]},"clean_state":"success","latitude":37.787445,"longitude":-122.397847},{"name":"kwiry","category_code":"tech","total_money_raised":1000000,"geolocation":{"type":"Point","coordinates":[-122.4035985,37.7885714]},"clean_state":"success","latitude":37.7885714,"longitude":-122.4035985},{"name":"Keibi Technologies","category_code":"tech","total_money_raised":5000000,"geolocation":{"type":"Point","coordinates":[-122.402759,37.787646]},"clean_state":"success","latitude":37.787646,"longitude":-122.402759},{"name":"Exent","category_code":"tech","total_money_raised":3000000,"geolocation":{"type":"Point","coordinates":[-122.402759,37.787646]},"clean_state":"success","latitude":37.787646,"longitude":-122.402759},{"name":"Stylehive","category_code":"tech","total_money_raised":2620000,"geolocation":{"type":"Point","coordinates":[-122.402759,37.787646]},"clean_state":"success","latitude":37.787646,"longitude":-122.402759},{"name":"Kongregate","category_code":"tech","total_money_raised":19000000,"geolocation":{"type":"Point","coordinates":[-122.401245,37.786942]},"clean_state":"success","latitude":37.786942,"longitude":-122.401245},{"name":"Xobni","category_code":"tech","total_money_raised":41800000,"geolocation":{"type":"Point","coordinates":[-122.404052,37.789634]},"clean_state":"success","latitude":37.789634,"longitude":-122.404052},{"name":"Yoono","category_code":"tech","total_money_raised":5450000,"geolocation":{"type":"Point","coordinates":[-122.397884,37.787204]},"clean_state":"success","latitude":37.787204,"longitude":-122.397884},{"name":"Heyzap","category_code":"tech","total_money_raised":7970000,"geolocation":{"type":"Point","coordinates":[-122.4041485,37.7905538]},"clean_state":"success","latitude":37.7905538,"longitude":-122.4041485},{"name":"SendMe","category_code":"tech","total_money_raised":34500000,"geolocation":{"type":"Point","coordinates":[-122.39783,37.787126]},"clean_state":"success","latitude":37.787126,"longitude":-122.39783},{"name":"Songbird","category_code":"tech","total_money_raised":11000000,"geolocation":{"type":"Point","coordinates":[-122.39783,37.787126]},"clean_state":"success","latitude":37.787126,"longitude":-122.39783},{"name":"CITTIO","category_code":"tech","total_money_raised":11500000,"geolocation":{"type":"Point","coordinates":[-122.4014585,37.7867612]},"clean_state":"success","latitude":37.7867612,"longitude":-122.4014585},{"name":"Lookery","category_code":"tech","total_money_raised":3150000,"geolocation":{"type":"Point","coordinates":[-122.403865,37.788266]},"clean_state":"success","latitude":37.788266,"longitude":-122.403865},{"name":"Disqus","category_code":"tech","total_money_raised":10500000,"geolocation":{"type":"Point","coordinates":[-122.397672,37.786906]},"clean_state":"success","latitude":37.786906,"longitude":-122.397672},{"name":"Lexy","category_code":"tech","total_money_raised":1710000,"geolocation":{"type":"Point","coordinates":[-122.397672,37.786906]},"clean_state":"success","latitude":37.786906,"longitude":-122.397672},{"name":"Wesabe","category_code":"tech","total_money_raised":4700000,"geolocation":{"type":"Point","coordinates":[-122.402567,37.793148]},"clean_state":"success","latitude":37.793148,"longitude":-122.402567},{"name":"Yola","category_code":"tech","total_money_raised":25000000,"geolocation":{"type":"Point","coordinates":[-122.3954751,37.7911148]},"clean_state":"success","latitude":37.7911148,"longitude":-122.3954751},{"name":"Mobissimo","category_code":"tech","total_money_raised":1000000,"geolocation":{"type":"Point","coordinates":[-122.39897,37.78624]},"clean_state":"success","latitude":37.78624,"longitude":-122.39897},{"name":"Swivel","category_code":"tech","total_money_raised":2000000,"geolocation":{"type":"Point","coordinates":[-122.395184,37.789268]},"clean_state":"success","latitude":37.789268,"longitude":-122.395184},{"name":"RichRelevance","category_code":"tech","total_money_raised":57800000,"geolocation":{"type":"Point","coordinates":[-122.4000965,37.7938969]},"clean_state":"success","latitude":37.7938969,"longitude":-122.4000965},{"name":"Roundbox","category_code":"tech","total_money_raised":43000000,"geolocation":{"type":"Point","coordinates":[-122.3978187,37.7864636]},"clean_state":"success","latitude":37.7864636,"longitude":-122.3978187},{"name":"SearchMe","category_code":"tech","total_money_raised":43600000,"geolocation":{"type":"Point","coordinates":[-122.402667,37.793473]},"clean_state":"success","latitude":37.793473,"longitude":-122.402667},{"name":"Yelp","category_code":"tech","total_money_raised":90000000,"geolocation":{"type":"Point","coordinates":[-122.402195,37.786183]},"clean_state":"success","latitude":37.786183,"longitude":-122.402195},{"name":"BitTorrent","category_code":"tech","total_money_raised":40800000,"geolocation":{"type":"Point","coordinates":[-122.394668,37.790998]},"clean_state":"success","latitude":37.790998,"longitude":-122.394668},{"name":"Sunrun","category_code":"tech","total_money_raised":337000000,"geolocation":{"type":"Point","coordinates":[-122.4041075,37.7871306]},"clean_state":"success","latitude":37.7871306,"longitude":-122.4041075},{"name":"ACT Biotech","category_code":"tech","total_money_raised":27000000,"geolocation":{"type":"Point","coordinates":[-122.4041075,37.7871306]},"clean_state":"success","latitude":37.7871306,"longitude":-122.4041075},{"name":"Blurb","category_code":"tech","total_money_raised":21600000,"geolocation":{"type":"Point","coordinates":[-122.40414,37.792968]},"clean_state":"success","latitude":37.792968,"longitude":-122.40414}]