[{"name":"Clearwire","category_code":"tech","total_money_raised":570000000000,"geolocation":{"type":"Point","coordinates":[-86.9843446,30.6324797]},"clean_state":"success"},{"name":"Facebook","category_code":"tech","total_money_raised":243000000000,"geolocation":{"type":"Point","coordinates":[-122.151801,37.41605]},"clean_state":"success"},{"name":"Facebook","category_code":"tech","total_money_raised":243000000000,"geolocation":{"type":"Point","coordinates":[-6.267494,53.344104]},"clean_state":"success"},{"name":"Facebook","category_code":"tech","total_money_raised":243000000000,"geolocation":{"type":"Point","coordinates":[-73.9792469,40.7557162]},"clean_state":"success"},{"name":"Terra-Gen Power","category_code":"tech","total_money_raised":120000000000,"geolocation":{"type":"Point","coordinates":[-73.9788753,40.7562295]},"clean_state":"success"},{"name":"Twitter","category_code":"tech","total_money_raised":115999999999,"geolocation":{"type":"Point","coordinates":[-122.4169244,37.7768052]},"clean_state":"success"},{"name":"Groupon","category_code":"tech","total_money_raised":114999999999,"geolocation":{"type":"Point","coordinates":[-87.643622,41.8965162]},"clean_state":"success"},{"name":"Xerox","category_code":"tech","total_money_raised":110000000000,"geolocation":{"type":"Point","coordinates":[-82.616032,41.256052]},"clean_state":"success"},{"name":"AOL","category_code":"tech","total_money_raised":100000000000,"geolocation":{"type":"Point","coordinates":[-73.9919311,40.7311317]},"clean_state":"success"},{"name":"Blackberry","category_code":"tech","total_money_raised":100000000000,"geolocation":{"type":"Point","coordinates":[-80.539594,43.476528]},"clean_state":"success"},{"name":"SurveyMonkey","category_code":"tech","total_money_raised":965000000,"geolocation":{"type":"Point","coordinates":[-122.676129,45.522105]},"clean_state":"success"},{"name":"SurveyMonkey","category_code":"tech","total_money_raised":965000000,"geolocation":{"type":"Point","coordinates":[-122.185141,37.453952]},"clean_state":"success"},{"name":"Zynga","category_code":"tech","total_money_raised":860000000,"geolocation":{"type":"Point","coordinates":[-122.404234,37.765158]},"clean_state":"success"},{"name":"Better Place","category_code":"tech","total_money_raised":836000000,"geolocation":{"type":"Point","coordinates":[-122.1425097,37.3949615]},"clean_state":"success"},{"name":"SolarCity","category_code":"tech","total_money_raised":789000000,"geolocation":{"type":"Point","coordinates":[-122.277639,37.563039]},"clean_state":"success"},{"name":"Comcast","category_code":"tech","total_money_raised":725000000,"geolocation":{"type":"Point","coordinates":[-75.1652518,39.9525762]},"clean_state":"success"},{"name":"SunEdison","category_code":"tech","total_money_raised":641000000,"geolocation":{"type":"Point","coordinates":[-76.8863954,39.0610803]},"clean_state":"success"},{"name":"ZeniMax","category_code":"tech","total_money_raised":586000000,"geolocation":{"type":"Point","coordinates":[-77.179772,39.105555]},"clean_state":"success"},{"name":"Google","category_code":"tech","total_money_raised":555000000,"geolocation":{"type":"Point","coordinates":[2.332749,48.869606]},"clean_state":"success"},{"name":"Google","category_code":"tech","total_money_raised":555000000,"geolocation":{"type":"Point","coordinates":[-118.494288,34.019282]},"clean_state":"success"},{"name":"Google","category_code":"tech","total_money_raised":555000000,"geolocation":{"type":"Point","coordinates":[-122.351397,47.675326]},"clean_state":"success"},{"name":"Google","category_code":"tech","total_money_raised":555000000,"geolocation":{"type":"Point","coordinates":[-122.350592,47.649701]},"clean_state":"success"},{"name":"Google","category_code":"tech","total_money_raised":555000000,"geolocation":{"type":"Point","coordinates":[-77.027101,38.901113]},"clean_state":"success"},{"name":"Google","category_code":"tech","total_money_raised":555000000,"geolocation":{"type":"Point","coordinates":[145.073608,-37.879234]},"clean_state":"success"},{"name":"Google","category_code":"tech","total_money_raised":555000000,"geolocation":{"type":"Point","coordinates":[-122.389757,37.789803]},"clean_state":"success"},{"name":"Google","category_code":"tech","total_money_raised":555000000,"geolocation":{"type":"Point","coordinates":[138.612396,-34.822723]},"clean_state":"success"},{"name":"Google","category_code":"tech","total_money_raised":555000000,"geolocation":{"type":"Point","coordinates":[77.122261,28.86999]},"clean_state":"success"},{"name":"Google","category_code":"tech","total_money_raised":555000000,"geolocation":{"type":"Point","coordinates":[10.187799,56.171882]},"clean_state":"success"},{"name":"Google","category_code":"tech","total_money_raised":555000000,"geolocation":{"type":"Point","coordinates":[-104.898419,39.62919]},"clean_state":"success"},{"name":"Google","category_code":"tech","total_money_raised":555000000,"geolocation":{"type":"Point","coordinates":[9.985266,53.554052]},"clean_state":"success"},{"name":"Google","category_code":"tech","total_money_raised":555000000,"geolocation":{"type":"Point","coordinates":[-6.234424,53.339914]},"clean_state":"success"},{"name":"Google","category_code":"tech","total_money_raised":555000000,"geolocation":{"type":"Point","coordinates":[9.195978,45.46381]},"clean_state":"success"},{"name":"Google","category_code":"tech","total_money_raised":555000000,"geolocation":{"type":"Point","coordinates":[4.871464,52.337495]},"clean_state":"success"},{"name":"Google","category_code":"tech","total_money_raised":555000000,"geolocation":{"type":"Point","coordinates":[-111.926263,33.411898]},"clean_state":"success"},{"name":"Google","category_code":"tech","total_money_raised":555000000,"geolocation":{"type":"Point","coordinates":[10.741047,59.915848]},"clean_state":"success"},{"name":"Google","category_code":"tech","total_money_raised":555000000,"geolocation":{"type":"Point","coordinates":[10.412428,63.435324]},"clean_state":"success"},{"name":"Google","category_code":"tech","total_money_raised":555000000,"geolocation":{"type":"Point","coordinates":[19.929806,50.063281]},"clean_state":"success"},{"name":"Google","category_code":"tech","total_money_raised":555000000,"geolocation":{"type":"Point","coordinates":[17.041942,51.116574]},"clean_state":"success"},{"name":"Google","category_code":"tech","total_money_raised":555000000,"geolocation":{"type":"Point","coordinates":[22.126255,65.617491]},"clean_state":"success"},{"name":"Google","category_code":"tech","total_money_raised":555000000,"geolocation":{"type":"Point","coordinates":[-79.946269,40.444528]},"clean_state":"success"},{"name":"Google","category_code":"tech","total_money_raised":555000000,"geolocation":{"type":"Point","coordinates":[-97.751382,30.351416]},"clean_state":"success"},{"name":"Google","category_code":"tech","total_money_raised":555000000,"geolocation":{"type":"Point","coordinates":[-74.004489,40.74222]},"clean_state":"success"},{"name":"Google","category_code":"tech","total_money_raised":555000000,"geolocation":{"type":"Point","coordinates":[-84.387519,33.781466]},"clean_state":"success"},{"name":"Google","category_code":"tech","total_money_raised":555000000,"geolocation":{"type":"Point","coordinates":[-99.030156,19.507519]},"clean_state":"success"},{"name":"Google","category_code":"tech","total_money_raised":555000000,"geolocation":{"type":"Point","coordinates":[-46.681494,-23.590463]},"clean_state":"success"},{"name":"Google","category_code":"tech","total_money_raised":555000000,"geolocation":{"type":"Point","coordinates":[-80.546381,43.474704]},"clean_state":"success"},{"name":"Google","category_code":"tech","total_money_raised":555000000,"geolocation":{"type":"Point","coordinates":[-73.567044,45.498588]},"clean_state":"success"},{"name":"Google","category_code":"tech","total_money_raised":555000000,"geolocation":{"type":"Point","coordinates":[-2.250166,53.473606]},"clean_state":"success"},{"name":"Google","category_code":"tech","total_money_raised":555000000,"geolocation":{"type":"Point","coordinates":[-117.861817,33.658331]},"clean_state":"success"},{"name":"Google","category_code":"tech","total_money_raised":555000000,"geolocation":{"type":"Point","coordinates":[-83.748882,42.280988]},"clean_state":"success"},{"name":"Google","category_code":"tech","total_money_raised":555000000,"geolocation":{"type":"Point","coordinates":[-122.084143,37.421972]},"clean_state":"success"},{"name":"Google","category_code":"tech","total_money_raised":555000000,"geolocation":{"type":"Point","coordinates":[8.524864,47.36554]},"clean_state":"success"},{"name":"Google","category_code":"tech","total_money_raised":555000000,"geolocation":{"type":"Point","coordinates":[-105.260931,40.021416]},"clean_state":"success"},{"name":"Google","category_code":"tech","total_money_raised":555000000,"geolocation":{"type":"Point","coordinates":[-71.087478,42.36305]},"clean_state":"success"},{"name":"Google","category_code":"tech","total_money_raised":555000000,"geolocation":{"type":"Point","coordinates":[-87.628912,41.889474]},"clean_state":"success"},{"name":"Google","category_code":"tech","total_money_raised":555000000,"geolocation":{"type":"Point","coordinates":[-97.018196,32.981465]},"clean_state":"success"},{"name":"Google","category_code":"tech","total_money_raised":555000000,"geolocation":{"type":"Point","coordinates":[-96.807693,32.809161]},"clean_state":"success"},{"name":"Google","category_code":"tech","total_money_raised":555000000,"geolocation":{"type":"Point","coordinates":[-83.215498,42.547807]},"clean_state":"success"},{"name":"Google","category_code":"tech","total_money_raised":555000000,"geolocation":{"type":"Point","coordinates":[18.060162,59.332344]},"clean_state":"success"},{"name":"FriendFinder Networks","category_code":"tech","total_money_raised":551000000,"geolocation":{"type":"Point","coordinates":[-80.1169895,26.4074809]},"clean_state":"success"},{"name":"Nanosolar","category_code":"tech","total_money_raised":520000000,"geolocation":{"type":"Point","coordinates":[-121.789862,37.264749]},"clean_state":"success"},{"name":"Deem","category_code":"tech","total_money_raised":467000000,"geolocation":{"type":"Point","coordinates":[-122.271532,37.559836]},"clean_state":"success"},{"name":"Invenergy","category_code":"tech","total_money_raised":459000000,"geolocation":{"type":"Point","coordinates":[-87.6367792,41.8819098]},"clean_state":"success"},{"name":"SoloPower","category_code":"tech","total_money_raised":458000000,"geolocation":{"type":"Point","coordinates":[-121.782906,37.253463]},"clean_state":"success"},{"name":"Bigpoint","category_code":"tech","total_money_raised":420000000,"geolocation":{"type":"Point","coordinates":[9.9762519,53.5973055]},"clean_state":"success"},{"name":"NextG Networks","category_code":"tech","total_money_raised":410000000,"geolocation":{"type":"Point","coordinates":[-121.9113633,37.3968078]},"clean_state":"success"},{"name":"Jawbone","category_code":"tech","total_money_raised":403000000,"geolocation":{"type":"Point","coordinates":[-122.402866,37.768708]},"clean_state":"success"},{"name":"VMware","category_code":"tech","total_money_raised":369000000,"geolocation":{"type":"Point","coordinates":[-122.145981,37.403315]},"clean_state":"success"},{"name":"Clovis Oncology","category_code":"tech","total_money_raised":357000000,"geolocation":{"type":"Point","coordinates":[-105.259041,40.026]},"clean_state":"success"},{"name":"Stormfisher Biogas","category_code":"tech","total_money_raised":350000000,"geolocation":{"type":"Point","coordinates":[-79.3670135,43.6538625]},"clean_state":"success"},{"name":"Sunrun","category_code":"tech","total_money_raised":337000000,"geolocation":{"type":"Point","coordinates":[-122.4041075,37.7871306]},"clean_state":"success"},{"name":"Symphogen","category_code":"tech","total_money_raised":334000000,"geolocation":{"type":"Point","coordinates":[12.515066,55.783256]},"clean_state":"success"},{"name":"Concur Technologies","category_code":"tech","total_money_raised":331000000,"geolocation":{"type":"Point","coordinates":[-0.651155,51.5200277]},"clean_state":"success"},{"name":"Relypsa","category_code":"tech","total_money_raised":322000000,"geolocation":{"type":"Point","coordinates":[-122.220408,37.5024749]},"clean_state":"success"},{"name":"SunGard","category_code":"tech","total_money_raised":316000000,"geolocation":{"type":"Point","coordinates":[-75.42402,40.075096]},"clean_state":"success"},{"name":"Highwinds","category_code":"tech","total_money_raised":312000000,"geolocation":{"type":"Point","coordinates":[-81.3593329,28.597741]},"clean_state":"success"},{"name":"Sangart","category_code":"tech","total_money_raised":301000000,"geolocation":{"type":"Point","coordinates":[-117.1948,32.89929]},"clean_state":"success"},{"name":"Kior","category_code":"tech","total_money_raised":298000000,"geolocation":{"type":"Point","coordinates":[-95.712891,37.09024]},"clean_state":"success"},{"name":"Elevance Renewable Sciences","category_code":"tech","total_money_raised":294000000,"geolocation":{"type":"Point","coordinates":[-88.0642145,41.6750038]},"clean_state":"success"},{"name":"GridPoint","category_code":"tech","total_money_raised":285000000,"geolocation":{"type":"Point","coordinates":[-77.091562,38.888107]},"clean_state":"success"},{"name":"Good Technology","category_code":"tech","total_money_raised":271000000,"geolocation":{"type":"Point","coordinates":[-122.254275,37.518539]},"clean_state":"success"},{"name":"Good Technology","category_code":"tech","total_money_raised":271000000,"geolocation":{"type":"Point","coordinates":[-87.637522,41.8812179]},"clean_state":"success"},{"name":"Good Technology","category_code":"tech","total_money_raised":271000000,"geolocation":{"type":"Point","coordinates":[-73.978807,40.7511339]},"clean_state":"success"},{"name":"Good Technology","category_code":"tech","total_money_raised":271000000,"geolocation":{"type":"Point","coordinates":[-122.35931,47.6246175]},"clean_state":"success"},{"name":"Dropbox","category_code":"tech","total_money_raised":257000000,"geolocation":{"type":"Point","coordinates":[-122.4084994,37.7909427]},"clean_state":"success"},{"name":"Trulia","category_code":"tech","total_money_raised":255000000,"geolocation":{"type":"Point","coordinates":[-122.406676,37.766909]},"clean_state":"success"},{"name":"Solar Power Partners","category_code":"tech","total_money_raised":253000000,"geolocation":{"type":"Point","coordinates":[-122.5150765,37.8794841]},"clean_state":"success"},{"name":"HelioVolt","category_code":"tech","total_money_raised":253000000,"geolocation":{"type":"Point","coordinates":[-97.685078,30.216908]},"clean_state":"success"},{"name":"Evernote","category_code":"tech","total_money_raised":251000000,"geolocation":{"type":"Point","coordinates":[-121.987661,37.386774]},"clean_state":"success"},{"name":"SquareTrade","category_code":"tech","total_money_raised":248000000,"geolocation":{"type":"Point","coordinates":[-122.40036,37.789551]},"clean_state":"success"},{"name":"ExactTarget","category_code":"tech","total_money_raised":246000000,"geolocation":{"type":"Point","coordinates":[-86.1580785,39.7672093]},"clean_state":"success"},{"name":"KAYAK","category_code":"tech","total_money_raised":235000000,"geolocation":{"type":"Point","coordinates":[-73.4168779,41.1010914]},"clean_state":"success"},{"name":"Pearl Therapeutics","category_code":"tech","total_money_raised":232000000,"geolocation":{"type":"Point","coordinates":[-122.217727,37.502169]},"clean_state":"success"},{"name":"Netflix","category_code":"tech","total_money_raised":230000000,"geolocation":{"type":"Point","coordinates":[-121.968687,37.25142]},"clean_state":"success"},{"name":"Suniva","category_code":"tech","total_money_raised":224000000,"geolocation":{"type":"Point","coordinates":[-84.2213281,33.954713]},"clean_state":"success"},{"name":"SolarWinds","category_code":"tech","total_money_raised":218000000,"geolocation":{"type":"Point","coordinates":[-97.805621,30.245535]},"clean_state":"success"},{"name":"InMobi","category_code":"tech","total_money_raised":216000000,"geolocation":{"type":"Point","coordinates":[103.851942,1.284082]},"clean_state":"success"},{"name":"InMobi","category_code":"tech","total_money_raised":216000000,"geolocation":{"type":"Point","coordinates":[-122.1709208,37.4465496]},"clean_state":"success"},{"name":"Icera","category_code":"tech","total_money_raised":212000000,"geolocation":{"type":"Point","coordinates":[-97.745212,30.270339]},"clean_state":"success"},{"name":"Icera","category_code":"tech","total_money_raised":212000000,"geolocation":{"type":"Point","coordinates":[-96.714066,32.974194]},"clean_state":"success"},{"name":"SolFocus","category_code":"tech","total_money_raised":211000000,"geolocation":{"type":"Point","coordinates":[-122.0497918,37.3987372]},"clean_state":"success"},{"name":"Oversee","category_code":"tech","total_money_raised":210000000,"geolocation":{"type":"Point","coordinates":[-118.256305,34.051368]},"clean_state":"success"},{"name":"Wayfair","category_code":"tech","total_money_raised":201000000,"geolocation":{"type":"Point","coordinates":[13.4478557,52.4981582]},"clean_state":"success"},{"name":"Wayfair","category_code":"tech","total_money_raised":201000000,"geolocation":{"type":"Point","coordinates":[-71.082523,42.348691]},"clean_state":"success"},{"name":"LinkedIn","category_code":"tech","total_money_raised":200000000,"geolocation":{"type":"Point","coordinates":[-122.073635,37.423258]},"clean_state":"success"},{"name":"Anacor Pharmaceutical","category_code":"tech","total_money_raised":192000000,"geolocation":{"type":"Point","coordinates":[-122.10649,37.431409]},"clean_state":"success"},{"name":"eSolar","category_code":"tech","total_money_raised":192000000,"geolocation":{"type":"Point","coordinates":[-118.153136,34.146436]},"clean_state":"success"},{"name":"HootSuite","category_code":"tech","total_money_raised":190000000,"geolocation":{"type":"Point","coordinates":[-123.0952381,49.2851733]},"clean_state":"success"},{"name":"Range Fuels","category_code":"tech","total_money_raised":186000000,"geolocation":{"type":"Point","coordinates":[-105.122053,39.915572]},"clean_state":"success"},{"name":"Angie's List","category_code":"tech","total_money_raised":183000000,"geolocation":{"type":"Point","coordinates":[-86.139793,39.767289]},"clean_state":"success"},{"name":"SolarReserve","category_code":"tech","total_money_raised":182000000,"geolocation":{"type":"Point","coordinates":[-118.471235,34.028173]},"clean_state":"success"},{"name":"New Relic","category_code":"tech","total_money_raised":175000000,"geolocation":{"type":"Point","coordinates":[-119.306607,37.269175]},"clean_state":"success"},{"name":"Biolex Therapeutics","category_code":"tech","total_money_raised":172000000,"geolocation":{"type":"Point","coordinates":[-79.1791771,35.7259177]},"clean_state":"success"},{"name":"Arena Pharmaceuticals","category_code":"tech","total_money_raised":169000000,"geolocation":{"type":"Point","coordinates":[-117.184408,32.889321]},"clean_state":"success"},{"name":"Meru Networks","category_code":"tech","total_money_raised":164000000,"geolocation":{"type":"Point","coordinates":[-122.033281,37.400867]},"clean_state":"success"},{"name":"Cortina Systems","category_code":"tech","total_money_raised":162000000,"geolocation":{"type":"Point","coordinates":[-122.037823,37.38153]},"clean_state":"success"},{"name":"Segway","category_code":"tech","total_money_raised":161000000,"geolocation":{"type":"Point","coordinates":[-71.45672,42.928152]},"clean_state":"success"},{"name":"23andMe","category_code":"tech","total_money_raised":161000000,"geolocation":{"type":"Point","coordinates":[-95.712891,37.09024]},"clean_state":"success"},{"name":"SulfurCell","category_code":"tech","total_money_raised":159000000,"geolocation":{"type":"Point","coordinates":[13.522974,52.432644]},"clean_state":"success"},{"name":"Aperto Networks","category_code":"tech","total_money_raised":158000000,"geolocation":{"type":"Point","coordinates":[-121.890252,37.416183]},"clean_state":"success"},{"name":"Visto","category_code":"tech","total_money_raised":156000000,"geolocation":{"type":"Point","coordinates":[-122.254275,37.518539]},"clean_state":"success"},{"name":"Jasper Wireless","category_code":"tech","total_money_raised":155000000,"geolocation":{"type":"Point","coordinates":[-122.04221,37.394392]},"clean_state":"success"},{"name":"Magix","category_code":"tech","total_money_raised":155000000,"geolocation":{"type":"Point","coordinates":[-119.7774302,39.5148219]},"clean_state":"success"},{"name":"NovImmune","category_code":"tech","total_money_raised":155000000,"geolocation":{"type":"Point","coordinates":[6.1399589,46.2038099]},"clean_state":"success"},{"name":"Infinia","category_code":"tech","total_money_raised":152000000,"geolocation":{"type":"Point","coordinates":[-119.22322,46.220919]},"clean_state":"success"},{"name":"Acer","category_code":"tech","total_money_raised":151000000,"geolocation":{"type":"Point","coordinates":[121.656061,25.0557219]},"clean_state":"success"},{"name":"Trilliant","category_code":"tech","total_money_raised":146000000,"geolocation":{"type":"Point","coordinates":[-122.257331,37.535876]},"clean_state":"success"},{"name":"Trilliant","category_code":"tech","total_money_raised":146000000,"geolocation":{"type":"Point","coordinates":[-122.257331,37.535876]},"clean_state":"success"},{"name":"Solazyme","category_code":"tech","total_money_raised":146000000,"geolocation":{"type":"Point","coordinates":[-122.390464,37.661543]},"clean_state":"success"},{"name":"obopay","category_code":"tech","total_money_raised":145000000,"geolocation":{"type":"Point","coordinates":[-122.258037,37.524729]},"clean_state":"success"},{"name":"Aicent","category_code":"tech","total_money_raised":145000000,"geolocation":{"type":"Point","coordinates":[-121.924797,37.384211]},"clean_state":"success"},{"name":"NGM Biopharmaceuticals","category_code":"tech","total_money_raised":145000000,"geolocation":{"type":"Point","coordinates":[-122.399735,37.656246]},"clean_state":"success"},{"name":"CipherMax","category_code":"tech","total_money_raised":142000000,"geolocation":{"type":"Point","coordinates":[-121.8939054,37.3969138]},"clean_state":"success"},{"name":"Eventbrite","category_code":"tech","total_money_raised":140000000,"geolocation":{"type":"Point","coordinates":[-122.39071,37.779507]},"clean_state":"success"},{"name":"Cvent","category_code":"tech","total_money_raised":137000000,"geolocation":{"type":"Point","coordinates":[-77.227525,38.923453]},"clean_state":"success"},{"name":"Aspen Aerogels","category_code":"tech","total_money_raised":136000000,"geolocation":{"type":"Point","coordinates":[-71.63034,42.347872]},"clean_state":"success"},{"name":"RockYou","category_code":"tech","total_money_raised":136000000,"geolocation":{"type":"Point","coordinates":[-122.206893,37.484619]},"clean_state":"success"},{"name":"SugarCRM","category_code":"tech","total_money_raised":135000000,"geolocation":{"type":"Point","coordinates":[-122.014147,37.323739]},"clean_state":"success"},{"name":"Green Apple Media","category_code":"tech","total_money_raised":132000000,"geolocation":{"type":"Point","coordinates":[-6.2689465,53.3438298]},"clean_state":"success"},{"name":"Bazaarvoice","category_code":"tech","total_money_raised":131000000,"geolocation":{"type":"Point","coordinates":[-97.717667,30.407545]},"clean_state":"success"},{"name":"HubSpot","category_code":"tech","total_money_raised":131000000,"geolocation":{"type":"Point","coordinates":[-71.118487,42.375392]},"clean_state":"success"},{"name":"Trevena","category_code":"tech","total_money_raised":129000000,"geolocation":{"type":"Point","coordinates":[-75.413354,40.100058]},"clean_state":"success"},{"name":"Zuora","category_code":"tech","total_money_raised":128000000,"geolocation":{"type":"Point","coordinates":[-122.2709868,37.5596277]},"clean_state":"success"},{"name":"Singulex","category_code":"tech","total_money_raised":127000000,"geolocation":{"type":"Point","coordinates":[-122.240937,37.723803]},"clean_state":"success"},{"name":"Roku","category_code":"tech","total_money_raised":127000000,"geolocation":{"type":"Point","coordinates":[-122.002271,37.279969]},"clean_state":"success"},{"name":"XDx","category_code":"tech","total_money_raised":126000000,"geolocation":{"type":"Point","coordinates":[-122.4040269,37.691226]},"clean_state":"success"},{"name":"Pocket Communications Northeast","category_code":"tech","total_money_raised":125000000,"geolocation":{"type":"Point","coordinates":[-72.70375,41.853615]},"clean_state":"success"},{"name":"Kabam","category_code":"tech","total_money_raised":125000000,"geolocation":{"type":"Point","coordinates":[-122.0785314,37.3944561]},"clean_state":"success"},{"name":"Tumblr","category_code":"tech","total_money_raised":125000000,"geolocation":{"type":"Point","coordinates":[-73.983626,40.743808]},"clean_state":"success"},{"name":"Yodlee","category_code":"tech","total_money_raised":124000000,"geolocation":{"type":"Point","coordinates":[-122.251539,37.538603]},"clean_state":"success"},{"name":"Dexterra","category_code":"tech","total_money_raised":123000000,"geolocation":{"type":"Point","coordinates":[6.96106,50.911182]},"clean_state":"success"},{"name":"ZPower","category_code":"tech","total_money_raised":123000000,"geolocation":{"type":"Point","coordinates":[-119.009054,34.197333]},"clean_state":"success"},{"name":"Ausra","category_code":"tech","total_money_raised":123000000,"geolocation":{"type":"Point","coordinates":[-122.117933,37.446526]},"clean_state":"success"},{"name":"Dexterra","category_code":"tech","total_money_raised":123000000,"geolocation":{"type":"Point","coordinates":[-122.196307,47.802184]},"clean_state":"success"},{"name":"Dexterra","category_code":"tech","total_money_raised":123000000,"geolocation":{"type":"Point","coordinates":[-79.382594,43.645702]},"clean_state":"success"},{"name":"Dexterra","category_code":"tech","total_money_raised":123000000,"geolocation":{"type":"Point","coordinates":[-122.201099,37.512253]},"clean_state":"success"},{"name":"Dexterra","category_code":"tech","total_money_raised":123000000,"geolocation":{"type":"Point","coordinates":[-0.995684,51.420766]},"clean_state":"success"},{"name":"Dexterra","category_code":"tech","total_money_raised":123000000,"geolocation":{"type":"Point","coordinates":[151.207543,-33.872864]},"clean_state":"success"},{"name":"Jumptap","category_code":"tech","total_money_raised":122000000,"geolocation":{"type":"Point","coordinates":[-73.980305,40.751478]},"clean_state":"success"},{"name":"Ooyala","category_code":"tech","total_money_raised":122000000,"geolocation":{"type":"Point","coordinates":[-122.084171,37.386665]},"clean_state":"success"},{"name":"Jumptap","category_code":"tech","total_money_raised":122000000,"geolocation":{"type":"Point","coordinates":[-73.980305,40.751478]},"clean_state":"success"},{"name":"Jumptap","category_code":"tech","total_money_raised":122000000,"geolocation":{"type":"Point","coordinates":[-71.075305,42.368633]},"clean_state":"success"},{"name":"BioVex","category_code":"tech","total_money_raised":122000000,"geolocation":{"type":"Point","coordinates":[-1.289082,51.671711]},"clean_state":"success"},{"name":"BioVex","category_code":"tech","total_money_raised":122000000,"geolocation":{"type":"Point","coordinates":[-71.13287,42.508964]},"clean_state":"success"},{"name":"Jumptap","category_code":"tech","total_money_raised":122000000,"geolocation":{"type":"Point","coordinates":[-71.075305,42.368633]},"clean_state":"success"},{"name":"Livescribe","category_code":"tech","total_money_raised":121000000,"geolocation":{"type":"Point","coordinates":[18.0339733,59.3179118]},"clean_state":"success"},{"name":"Aerovance","category_code":"tech","total_money_raised":119000000,"geolocation":{"type":"Point","coordinates":[-122.272747,37.8715926]},"clean_state":"success"},{"name":"Danger","category_code":"tech","total_money_raised":118000000,"geolocation":{"type":"Point","coordinates":[-122.136248,37.425168]},"clean_state":"success"},{"name":"Five Prime Therapeutics","category_code":"tech","total_money_raised":117000000,"geolocation":{"type":"Point","coordinates":[-122.393799,37.7676285]},"clean_state":"success"},{"name":"Sutro Biopharma","category_code":"tech","total_money_raised":116000000,"geolocation":{"type":"Point","coordinates":[-122.394584,37.647198]},"clean_state":"success"},{"name":"Force10 Networks","category_code":"tech","total_money_raised":116000000,"geolocation":{"type":"Point","coordinates":[-121.944828,37.418636]},"clean_state":"success"},{"name":"Melinta","category_code":"tech","total_money_raised":116000000,"geolocation":{"type":"Point","coordinates":[-72.93117,41.305179]},"clean_state":"success"},{"name":"DocuSign","category_code":"tech","total_money_raised":116000000,"geolocation":{"type":"Point","coordinates":[-122.335668,47.603015]},"clean_state":"success"},{"name":"SiBEAM","category_code":"tech","total_money_raised":114000000,"geolocation":{"type":"Point","coordinates":[-122.03039,37.390704]},"clean_state":"success"},{"name":"eHarmony","category_code":"tech","total_money_raised":113000000,"geolocation":{"type":"Point","coordinates":[-118.132351,34.145946]},"clean_state":"success"},{"name":"Current Communications Group","category_code":"tech","total_money_raised":113000000,"geolocation":{"type":"Point","coordinates":[-77.266168,39.193953]},"clean_state":"success"},{"name":"Virdia","category_code":"tech","total_money_raised":111000000,"geolocation":{"type":"Point","coordinates":[-122.259154,37.523311]},"clean_state":"success"},{"name":"Tendril","category_code":"tech","total_money_raised":111000000,"geolocation":{"type":"Point","coordinates":[-105.228284,40.026422]},"clean_state":"success"},{"name":"MicroVision","category_code":"tech","total_money_raised":110000000,"geolocation":{"type":"Point","coordinates":[-122.0943198,47.6614954]},"clean_state":"success"},{"name":"Canpages","category_code":"tech","total_money_raised":110000000,"geolocation":{"type":"Point","coordinates":[-122.9153695,49.2599284]},"clean_state":"success"},{"name":"The Climate Corporation","category_code":"tech","total_money_raised":109000000,"geolocation":{"type":"Point","coordinates":[-122.3331466,47.5984767]},"clean_state":"success"},{"name":"The Climate Corporation","category_code":"tech","total_money_raised":109000000,"geolocation":{"type":"Point","coordinates":[-122.394354,37.782809]},"clean_state":"success"},{"name":"Cempra","category_code":"tech","total_money_raised":108000000,"geolocation":{"type":"Point","coordinates":[-78.976038,35.911347]},"clean_state":"success"},{"name":"Marketo","category_code":"tech","total_money_raised":108000000,"geolocation":{"type":"Point","coordinates":[-122.301385,37.5583]},"clean_state":"success"},{"name":"Alimera Sciences","category_code":"tech","total_money_raised":107000000,"geolocation":{"type":"Point","coordinates":[-84.242809,34.093625]},"clean_state":"success"},{"name":"ideeli","category_code":"tech","total_money_raised":107000000,"geolocation":{"type":"Point","coordinates":[-73.990396,40.755978]},"clean_state":"success"},{"name":"PacketVideo","category_code":"tech","total_money_raised":106000000,"geolocation":{"type":"Point","coordinates":[-117.163841,32.718834]},"clean_state":"success"},{"name":"NanoString Technologies","category_code":"tech","total_money_raised":106000000,"geolocation":{"type":"Point","coordinates":[-122.3343544,47.6234781]},"clean_state":"success"},{"name":"AVA Solar","category_code":"tech","total_money_raised":104000000,"geolocation":{"type":"Point","coordinates":[-105.0002597,40.4182087]},"clean_state":"success"},{"name":"Siluria Technologies","category_code":"tech","total_money_raised":103000000,"geolocation":{"type":"Point","coordinates":[-122.1802812,37.4484914]},"clean_state":"success"},{"name":"Talend","category_code":"tech","total_money_raised":102000000,"geolocation":{"type":"Point","coordinates":[-122.111711,37.371908]},"clean_state":"success"},{"name":"Aurora Biofuels","category_code":"tech","total_money_raised":102000000,"geolocation":{"type":"Point","coordinates":[-122.0807964,37.6688205]},"clean_state":"success"},{"name":"Aurora Biofuels","category_code":"tech","total_money_raised":102000000,"geolocation":{"type":"Point","coordinates":[-122.1169032,37.6266932]},"clean_state":"success"},{"name":"Spring Mobile Solutions","category_code":"tech","total_money_raised":101000000,"geolocation":{"type":"Point","coordinates":[-122.3479567,47.6154389]},"clean_state":"success"},{"name":"Wonga","category_code":"tech","total_money_raised":101000000,"geolocation":{"type":"Point","coordinates":[-0.1626103,51.5192042]},"clean_state":"success"},{"name":"Spring Mobile Solutions","category_code":"tech","total_money_raised":101000000,"geolocation":{"type":"Point","coordinates":[-46.6864531,-23.5965303]},"clean_state":"success"},{"name":"Tokai Pharmaceuticals","category_code":"tech","total_money_raised":100000000,"geolocation":{"type":"Point","coordinates":[-71.083762,42.362856]},"clean_state":"success"},{"name":"hulu","category_code":"tech","total_money_raised":100000000,"geolocation":{"type":"Point","coordinates":[-118.456806,34.031276]},"clean_state":"success"},{"name":"NanoInk","category_code":"tech","total_money_raised":100000000,"geolocation":{"type":"Point","coordinates":[-87.749253,42.041574]},"clean_state":"success"},{"name":"GitHub","category_code":"tech","total_money_raised":100000000,"geolocation":{"type":"Point","coordinates":[-122.419204,37.775196]},"clean_state":"success"},{"name":"Palm","category_code":"tech","total_money_raised":100000000,"geolocation":{"type":"Point","coordinates":[-122.040051,37.392362]},"clean_state":"success"},{"name":"Renewable Energy Group","category_code":"tech","total_money_raised":100000000,"geolocation":{"type":"Point","coordinates":[-93.57495,42.0231313]},"clean_state":"success"},{"name":"Aileron Therapeutics","category_code":"tech","total_money_raised":99500000,"geolocation":{"type":"Point","coordinates":[-71.1097335,42.3736158]},"clean_state":"success"},{"name":"Aileron Therapeutics","category_code":"tech","total_money_raised":99500000,"geolocation":{"type":"Point","coordinates":[-72.637994,42.101977]},"clean_state":"success"},{"name":"Concert Pharmaceuticals","category_code":"tech","total_money_raised":99500000,"geolocation":{"type":"Point","coordinates":[-71.2459523,42.4236783]},"clean_state":"success"},{"name":"Aristos Logic","category_code":"tech","total_money_raised":99400000,"geolocation":{"type":"Point","coordinates":[-121.893859,37.42105]},"clean_state":"success"},{"name":"Outbrain","category_code":"tech","total_money_raised":99000000,"geolocation":{"type":"Point","coordinates":[-73.985506,40.757929]},"clean_state":"success"},{"name":"Luca Technologies","category_code":"tech","total_money_raised":98900000,"geolocation":{"type":"Point","coordinates":[-105.604,44.2264]},"clean_state":"success"},{"name":"Luca Technologies","category_code":"tech","total_money_raised":98900000,"geolocation":{"type":"Point","coordinates":[-105.192312,39.720088]},"clean_state":"success"},{"name":"Kythera Biopharmaceuticals","category_code":"tech","total_money_raised":98400000,"geolocation":{"type":"Point","coordinates":[-118.763605,34.143507]},"clean_state":"success"},{"name":"Dilithium Networks","category_code":"tech","total_money_raised":98200000,"geolocation":{"type":"Point","coordinates":[-122.668452,38.279431]},"clean_state":"success"},{"name":"Radialpoint","category_code":"tech","total_money_raised":98000000,"geolocation":{"type":"Point","coordinates":[-73.5696547,45.5075577]},"clean_state":"success"},{"name":"GreenVolts","category_code":"tech","total_money_raised":96800000,"geolocation":{"type":"Point","coordinates":[-122.398669,37.790153]},"clean_state":"success"},{"name":"picoChip","category_code":"tech","total_money_raised":96500000,"geolocation":{"type":"Point","coordinates":[-121.9235529,37.3709977]},"clean_state":"success"},{"name":"Histogenics","category_code":"tech","total_money_raised":96400000,"geolocation":{"type":"Point","coordinates":[-71.2751097,42.4001965]},"clean_state":"success"},{"name":"Catalyst Biosciences","category_code":"tech","total_money_raised":95900000,"geolocation":{"type":"Point","coordinates":[-122.394464,37.645401]},"clean_state":"success"},{"name":"Telsima","category_code":"tech","total_money_raised":95000000,"geolocation":{"type":"Point","coordinates":[-122.014027,37.4092917]},"clean_state":"success"},{"name":"Elance","category_code":"tech","total_money_raised":94800000,"geolocation":{"type":"Point","coordinates":[-122.049143,37.398022]},"clean_state":"success"},{"name":"VaxInnate","category_code":"tech","total_money_raised":94800000,"geolocation":{"type":"Point","coordinates":[-74.5014238,40.3321605]},"clean_state":"success"},{"name":"Pelikan Technologies","category_code":"tech","total_money_raised":94000000,"geolocation":{"type":"Point","coordinates":[-122.108852,37.4298665]},"clean_state":"success"},{"name":"Etsy","category_code":"tech","total_money_raised":91700000,"geolocation":{"type":"Point","coordinates":[-73.983268,40.694731]},"clean_state":"success"},{"name":"Glassdoor","category_code":"tech","total_money_raised":91500000,"geolocation":{"type":"Point","coordinates":[-122.500111,37.868002]},"clean_state":"success"},{"name":"Synosia Therapeutics","category_code":"tech","total_money_raised":91500000,"geolocation":{"type":"Point","coordinates":[7.5930992,47.5525264]},"clean_state":"success"},{"name":"Yelp","category_code":"tech","total_money_raised":90000000,"geolocation":{"type":"Point","coordinates":[-122.402195,37.786183]},"clean_state":"success"},{"name":"Arcadian Networks","category_code":"tech","total_money_raised":90000000,"geolocation":{"type":"Point","coordinates":[-93.5874441,45.3200381]},"clean_state":"success"},{"name":"Versartis","category_code":"tech","total_money_raised":89500000,"geolocation":{"type":"Point","coordinates":[-122.259179,37.523194]},"clean_state":"success"},{"name":"Fulcrum Bioenergy","category_code":"tech","total_money_raised":89000000,"geolocation":{"type":"Point","coordinates":[-121.904945,37.692934]},"clean_state":"success"},{"name":"Jingle Networks","category_code":"tech","total_money_raised":88700000,"geolocation":{"type":"Point","coordinates":[-122.173887,37.480999]},"clean_state":"success"},{"name":"ZoomSystems","category_code":"tech","total_money_raised":87000000,"geolocation":{"type":"Point","coordinates":[-122.391061,37.781689]},"clean_state":"success"},{"name":"Solexant","category_code":"tech","total_money_raised":87000000,"geolocation":{"type":"Point","coordinates":[-121.9198306,37.3825306]},"clean_state":"success"},{"name":"PatientKeeper","category_code":"tech","total_money_raised":86700000,"geolocation":{"type":"Point","coordinates":[-71.1858605,42.357119]},"clean_state":"success"},{"name":"DisplayLink","category_code":"tech","total_money_raised":86700000,"geolocation":{"type":"Point","coordinates":[-122.1456727,37.4253795]},"clean_state":"success"},{"name":"Coskata","category_code":"tech","total_money_raised":86200000,"geolocation":{"type":"Point","coordinates":[-88.159371,41.8035954]},"clean_state":"success"},{"name":"MBA Polymers","category_code":"tech","total_money_raised":86200000,"geolocation":{"type":"Point","coordinates":[-122.374927,37.93039]},"clean_state":"success"},{"name":"Zendesk","category_code":"tech","total_money_raised":85500000,"geolocation":{"type":"Point","coordinates":[12.568116,55.676294]},"clean_state":"success"},{"name":"Recyclebank","category_code":"tech","total_money_raised":85100000,"geolocation":{"type":"Point","coordinates":[-74.0078134,40.7310476]},"clean_state":"success"},{"name":"Aconex","category_code":"tech","total_money_raised":85000000,"geolocation":{"type":"Point","coordinates":[55.307485,25.271139]},"clean_state":"success"},{"name":"SolarEdge","category_code":"tech","total_money_raised":85000000,"geolocation":{"type":"Point","coordinates":[-121.9382415,37.4757796]},"clean_state":"success"},{"name":"Aconex","category_code":"tech","total_money_raised":85000000,"geolocation":{"type":"Point","coordinates":[77.6049218,12.9648638]},"clean_state":"success"},{"name":"Recurrent Energy","category_code":"tech","total_money_raised":85000000,"geolocation":{"type":"Point","coordinates":[-122.404448,37.805289]},"clean_state":"success"},{"name":"Aconex","category_code":"tech","total_money_raised":85000000,"geolocation":{"type":"Point","coordinates":[-0.1200848,51.5117478]},"clean_state":"success"},{"name":"Aconex","category_code":"tech","total_money_raised":85000000,"geolocation":{"type":"Point","coordinates":[144.9715423,-37.8161164]},"clean_state":"success"},{"name":"ParAccel","category_code":"tech","total_money_raised":84500000,"geolocation":{"type":"Point","coordinates":[-122.05074,37.3166526]},"clean_state":"success"},{"name":"Adaptive Planning","category_code":"tech","total_money_raised":84500000,"geolocation":{"type":"Point","coordinates":[-122.0887097,37.4192309]},"clean_state":"success"},{"name":"WildTangent","category_code":"tech","total_money_raised":84000000,"geolocation":{"type":"Point","coordinates":[-95.712891,37.09024]},"clean_state":"success"},{"name":"ShareThis","category_code":"tech","total_money_raised":82900000,"geolocation":{"type":"Point","coordinates":[-122.0872274,37.4203945]},"clean_state":"success"},{"name":"Realtime Worlds","category_code":"tech","total_money_raised":82800000,"geolocation":{"type":"Point","coordinates":[-2.968111,56.461428]},"clean_state":"success"},{"name":"Realtime Worlds","category_code":"tech","total_money_raised":82800000,"geolocation":{"type":"Point","coordinates":[-105.276843,40.010492]},"clean_state":"success"},{"name":"Lyft","category_code":"tech","total_money_raised":82500000,"geolocation":{"type":"Point","coordinates":[-122.4007846,37.7899027]},"clean_state":"success"},{"name":"Lyft","category_code":"tech","total_money_raised":82500000,"geolocation":{"type":"Point","coordinates":[-122.4007846,37.7899027]},"clean_state":"success"},{"name":"Sirtris Pharmaceuticals","category_code":"tech","total_money_raised":82000000,"geolocation":{"type":"Point","coordinates":[-71.091189,42.363567]},"clean_state":"success"},{"name":"BPL Global","category_code":"tech","total_money_raised":81300000,"geolocation":{"type":"Point","coordinates":[-80.098299,40.612461]},"clean_state":"success"},{"name":"ooma","category_code":"tech","total_money_raised":81300000,"geolocation":{"type":"Point","coordinates":[-122.116026,37.451958]},"clean_state":"success"},{"name":"PhotoThera","category_code":"tech","total_money_raised":80500000,"geolocation":{"type":"Point","coordinates":[-117.275027,33.13324]},"clean_state":"success"},{"name":"Lilliputian Systems","category_code":"tech","total_money_raised":80100000,"geolocation":{"type":"Point","coordinates":[-71.1509692,42.5960633]},"clean_state":"success"},{"name":"Azingo","category_code":"tech","total_money_raised":80000000,"geolocation":{"type":"Point","coordinates":[-122.036301,37.382162]},"clean_state":"success"},{"name":"Intelliden","category_code":"tech","total_money_raised":80000000,"geolocation":{"type":"Point","coordinates":[-122.1725191,37.4587657]},"clean_state":"success"},{"name":"Tigo Energy","category_code":"tech","total_money_raised":79800000,"geolocation":{"type":"Point","coordinates":[-121.9594672,37.2612396]},"clean_state":"success"},{"name":"Taligen Therapeutics","category_code":"tech","total_money_raised":78800000,"geolocation":{"type":"Point","coordinates":[-71.0786638,42.3634664]},"clean_state":"success"},{"name":"sezmi","category_code":"tech","total_money_raised":78600000,"geolocation":{"type":"Point","coordinates":[-122.265869,37.524422]},"clean_state":"success"},{"name":"sezmi","category_code":"tech","total_money_raised":78600000,"geolocation":{"type":"Point","coordinates":[-118.453218,34.017373]},"clean_state":"success"},{"name":"sezmi","category_code":"tech","total_money_raised":78600000,"geolocation":{"type":"Point","coordinates":[-80.157296,26.207024]},"clean_state":"success"},{"name":"mBlox","category_code":"tech","total_money_raised":78300000,"geolocation":{"type":"Point","coordinates":[-122.025257,37.37604]},"clean_state":"success"},{"name":"Applied Genetics Technologies Corporation","category_code":"tech","total_money_raised":78100000,"geolocation":{"type":"Point","coordinates":[-82.4768036,29.7847641]},"clean_state":"success"},{"name":"QD Vision","category_code":"tech","total_money_raised":78000000,"geolocation":{"type":"Point","coordinates":[-71.1998364,42.3678629]},"clean_state":"success"},{"name":"OpTier","category_code":"tech","total_money_raised":77500000,"geolocation":{"type":"Point","coordinates":[-73.985647,40.754937]},"clean_state":"success"},{"name":"Proteon Therapeutics","category_code":"tech","total_money_raised":77200000,"geolocation":{"type":"Point","coordinates":[-71.2709869,42.3913892]},"clean_state":"success"},{"name":"Skype","category_code":"tech","total_money_raised":76800000,"geolocation":{"type":"Point","coordinates":[-0.131916,51.518132]},"clean_state":"success"},{"name":"Turbine","category_code":"tech","total_money_raised":76600000,"geolocation":{"type":"Point","coordinates":[-122.223384,37.477652]},"clean_state":"success"},{"name":"Turbine","category_code":"tech","total_money_raised":76600000,"geolocation":{"type":"Point","coordinates":[-71.185964,42.214483]},"clean_state":"success"},{"name":"Synaptics","category_code":"tech","total_money_raised":76200000,"geolocation":{"type":"Point","coordinates":[-121.967982,37.352313]},"clean_state":"success"},{"name":"Playdom","category_code":"tech","total_money_raised":76000000,"geolocation":{"type":"Point","coordinates":[-122.076747,37.393536]},"clean_state":"success"},{"name":"GreatCall","category_code":"tech","total_money_raised":75300000,"geolocation":{"type":"Point","coordinates":[-117.265191,32.964294]},"clean_state":"success"},{"name":"HowStuffWorks","category_code":"tech","total_money_raised":75000000,"geolocation":{"type":"Point","coordinates":[-95.712891,37.09024]},"clean_state":"success"},{"name":"ChannelAdvisor","category_code":"tech","total_money_raised":75000000,"geolocation":{"type":"Point","coordinates":[-78.815635,35.854483]},"clean_state":"success"},{"name":"Bonobos","category_code":"tech","total_money_raised":74700000,"geolocation":{"type":"Point","coordinates":[-73.9954585,40.7384997]},"clean_state":"success"},{"name":"Bioscale","category_code":"tech","total_money_raised":74600000,"geolocation":{"type":"Point","coordinates":[-71.1017618,42.3609606]},"clean_state":"success"},{"name":"Xactly Corp","category_code":"tech","total_money_raised":73900000,"geolocation":{"type":"Point","coordinates":[-71.056928,42.355077]},"clean_state":"success"},{"name":"Xactly Corp","category_code":"tech","total_money_raised":73900000,"geolocation":{"type":"Point","coordinates":[-121.891516,37.334738]},"clean_state":"success"},{"name":"Xactly Corp","category_code":"tech","total_money_raised":73900000,"geolocation":{"type":"Point","coordinates":[-71.056928,42.355077]},"clean_state":"success"},{"name":"Xactly Corp","category_code":"tech","total_money_raised":73900000,"geolocation":{"type":"Point","coordinates":[-121.891516,37.334738]},"clean_state":"success"},{"name":"Internet Mall","category_code":"tech","total_money_raised":73000000,"geolocation":{"type":"Point","coordinates":[15.472962,49.817492]},"clean_state":"success"},{"name":"BiPar Sciences","category_code":"tech","total_money_raised":73000000,"geolocation":{"type":"Point","coordinates":[-122.387699,37.674378]},"clean_state":"success"},{"name":"Infusionsoft","category_code":"tech","total_money_raised":72900000,"geolocation":{"type":"Point","coordinates":[-111.8871813,33.2871748]},"clean_state":"success"},{"name":"RealD","category_code":"tech","total_money_raised":72000000,"geolocation":{"type":"Point","coordinates":[-118.395658,34.067554]},"clean_state":"success"},{"name":"Sylantro","category_code":"tech","total_money_raised":70500000,"geolocation":{"type":"Point","coordinates":[-121.934573,37.293687]},"clean_state":"success"},{"name":"Sand 9","category_code":"tech","total_money_raised":70200000,"geolocation":{"type":"Point","coordinates":[-71.1068046,42.3488891]},"clean_state":"success"},{"name":"Sagent Pharmaceuticals","category_code":"tech","total_money_raised":70000000,"geolocation":{"type":"Point","coordinates":[-88.0794478,42.061187]},"clean_state":"success"},{"name":"Meebo","category_code":"tech","total_money_raised":70000000,"geolocation":{"type":"Point","coordinates":[-122.079017,37.393679]},"clean_state":"success"},{"name":"AOptix Technologies","category_code":"tech","total_money_raised":69900000,"geolocation":{"type":"Point","coordinates":[-121.94356,37.279485]},"clean_state":"success"},{"name":"Veoh","category_code":"tech","total_money_raised":69800000,"geolocation":{"type":"Point","coordinates":[-117.20834,32.902266]},"clean_state":"success"},{"name":"BridgeCo","category_code":"tech","total_money_raised":69500000,"geolocation":{"type":"Point","coordinates":[8.6049507,47.3994267]},"clean_state":"success"},{"name":"Quench","category_code":"tech","total_money_raised":69000000,"geolocation":{"type":"Point","coordinates":[-86.156255,39.767016]},"clean_state":"success"},{"name":"Major League Gaming","category_code":"tech","total_money_raised":69000000,"geolocation":{"type":"Point","coordinates":[-73.97593,40.752672]},"clean_state":"success"},{"name":"Solix Biofuels","category_code":"tech","total_money_raised":68800000,"geolocation":{"type":"Point","coordinates":[-105.0766501,40.5932386]},"clean_state":"success"},{"name":"eMeter","category_code":"tech","total_money_raised":68800000,"geolocation":{"type":"Point","coordinates":[-122.284114,37.560781]},"clean_state":"success"},{"name":"SkyPilot Networks","category_code":"tech","total_money_raised":68400000,"geolocation":{"type":"Point","coordinates":[-121.95993,37.381876]},"clean_state":"success"},{"name":"comScore","category_code":"tech","total_money_raised":68200000,"geolocation":{"type":"Point","coordinates":[-77.3577568,38.9579071]},"clean_state":"success"},{"name":"INRIX","category_code":"tech","total_money_raised":68100000,"geolocation":{"type":"Point","coordinates":[-122.2033998,47.6434969]},"clean_state":"success"},{"name":"RadioFrame","category_code":"tech","total_money_raised":68000000,"geolocation":{"type":"Point","coordinates":[-122.145808,47.685626]},"clean_state":"success"},{"name":"SpikeSource","category_code":"tech","total_money_raised":68000000,"geolocation":{"type":"Point","coordinates":[-122.203744,37.510805]},"clean_state":"success"},{"name":"RadioFrame","category_code":"tech","total_money_raised":68000000,"geolocation":{"type":"Point","coordinates":[-6.250174,53.335759]},"clean_state":"success"},{"name":"Cymbet","category_code":"tech","total_money_raised":67900000,"geolocation":{"type":"Point","coordinates":[-93.6081536,45.3039175]},"clean_state":"success"},{"name":"kajeet","category_code":"tech","total_money_raised":65900000,"geolocation":{"type":"Point","coordinates":[-77.1008,38.9806]},"clean_state":"success"},{"name":"3Leaf","category_code":"tech","total_money_raised":65000000,"geolocation":{"type":"Point","coordinates":[-121.971487,37.381034]},"clean_state":"success"},{"name":"Dash","category_code":"tech","total_money_raised":65000000,"geolocation":{"type":"Point","coordinates":[-122.031855,37.401495]},"clean_state":"success"},{"name":"Viagogo","category_code":"tech","total_money_raised":65000000,"geolocation":{"type":"Point","coordinates":[-0.126236,51.500152]},"clean_state":"success"},{"name":"MetricStream","category_code":"tech","total_money_raised":65000000,"geolocation":{"type":"Point","coordinates":[-122.118794,37.446535]},"clean_state":"success"},{"name":"Endeca","category_code":"tech","total_money_raised":65000000,"geolocation":{"type":"Point","coordinates":[-71.081527,42.36233]},"clean_state":"success"},{"name":"Ruckus Wireless","category_code":"tech","total_money_raised":64900000,"geolocation":{"type":"Point","coordinates":[-122.037538,37.3913]},"clean_state":"success"},{"name":"SLR Consulting","category_code":"tech","total_money_raised":64400000,"geolocation":{"type":"Point","coordinates":[-122.2052314,47.7975302]},"clean_state":"success"},{"name":"ContextWeb","category_code":"tech","total_money_raised":63500000,"geolocation":{"type":"Point","coordinates":[-74.010808,40.71014]},"clean_state":"success"},{"name":"ESBATech","category_code":"tech","total_money_raised":63000000,"geolocation":{"type":"Point","coordinates":[8.4582269,47.3993302]},"clean_state":"success"},{"name":"Zappos","category_code":"tech","total_money_raised":62800000,"geolocation":{"type":"Point","coordinates":[-115.064859,36.032976]},"clean_state":"success"},{"name":"Purfresh","category_code":"tech","total_money_raised":62700000,"geolocation":{"type":"Point","coordinates":[-122.151599,37.477008]},"clean_state":"success"},{"name":"Turbine Air Systems","category_code":"tech","total_money_raised":62000000,"geolocation":{"type":"Point","coordinates":[-95.3500171,29.6982817]},"clean_state":"success"},{"name":"Avantium Technologies","category_code":"tech","total_money_raised":61900000,"geolocation":{"type":"Point","coordinates":[4.8516964,52.3965603]},"clean_state":"success"},{"name":"Zoosk","category_code":"tech","total_money_raised":61600000,"geolocation":{"type":"Point","coordinates":[-122.4099154,37.7726402]},"clean_state":"success"},{"name":"EBR Systems","category_code":"tech","total_money_raised":61000000,"geolocation":{"type":"Point","coordinates":[-122.033741,37.390233]},"clean_state":"success"},{"name":"SugarSync","category_code":"tech","total_money_raised":61000000,"geolocation":{"type":"Point","coordinates":[-122.307887,37.54763]},"clean_state":"success"},{"name":"Blekko","category_code":"tech","total_money_raised":60200000,"geolocation":{"type":"Point","coordinates":[-95.712891,37.09024]},"clean_state":"success"},{"name":"Ustream","category_code":"tech","total_money_raised":60100000,"geolocation":{"type":"Point","coordinates":[-122.07948,37.392936]},"clean_state":"success"},{"name":"Altierre","category_code":"tech","total_money_raised":60000000,"geolocation":{"type":"Point","coordinates":[-121.8957166,37.3968262]},"clean_state":"success"},{"name":"Tetraphase Pharmaceuticals","category_code":"tech","total_money_raised":60000000,"geolocation":{"type":"Point","coordinates":[-71.158939,42.3630235]},"clean_state":"success"},{"name":"Cellfish","category_code":"tech","total_money_raised":60000000,"geolocation":{"type":"Point","coordinates":[-73.983754,40.761855]},"clean_state":"success"},{"name":"Booyah","category_code":"tech","total_money_raised":59500000,"geolocation":{"type":"Point","coordinates":[-122.2103414,37.420728]},"clean_state":"success"},{"name":"Proofpoint","category_code":"tech","total_money_raised":59000000,"geolocation":{"type":"Point","coordinates":[-122.031591,37.400751]},"clean_state":"success"},{"name":"Conviva","category_code":"tech","total_money_raised":59000000,"geolocation":{"type":"Point","coordinates":[-122.2916021,37.552806]},"clean_state":"success"},{"name":"Crocus Technology","category_code":"tech","total_money_raised":59000000,"geolocation":{"type":"Point","coordinates":[-121.987661,37.386774]},"clean_state":"success"},{"name":"Double Fusion","category_code":"tech","total_money_raised":59000000,"geolocation":{"type":"Point","coordinates":[-122.3927145,37.7887135]},"clean_state":"success"},{"name":"Envivio","category_code":"tech","total_money_raised":59000000,"geolocation":{"type":"Point","coordinates":[-122.38222,37.665469]},"clean_state":"success"},{"name":"Anystream","category_code":"tech","total_money_raised":59000000,"geolocation":{"type":"Point","coordinates":[-71.255286,42.400416]},"clean_state":"success"},{"name":"Anystream","category_code":"tech","total_money_raised":59000000,"geolocation":{"type":"Point","coordinates":[-77.430125,39.035298]},"clean_state":"success"},{"name":"VeriSilicon Holdings","category_code":"tech","total_money_raised":58900000,"geolocation":{"type":"Point","coordinates":[-121.97895,37.399208]},"clean_state":"success"},{"name":"RazorGator","category_code":"tech","total_money_raised":58800000,"geolocation":{"type":"Point","coordinates":[-118.445243,34.047312]},"clean_state":"success"},{"name":"GreenRoad Technologies","category_code":"tech","total_money_raised":58400000,"geolocation":{"type":"Point","coordinates":[-122.263434,37.527315]},"clean_state":"success"},{"name":"Ubicom","category_code":"tech","total_money_raised":58200000,"geolocation":{"type":"Point","coordinates":[-121.940895,37.414105]},"clean_state":"success"},{"name":"Elixir Pharmaceuticals","category_code":"tech","total_money_raised":58000000,"geolocation":{"type":"Point","coordinates":[-71.113289,42.362035]},"clean_state":"success"},{"name":"Kleer","category_code":"tech","total_money_raised":58000000,"geolocation":{"type":"Point","coordinates":[-122.0212868,37.3230162]},"clean_state":"success"},{"name":"RichRelevance","category_code":"tech","total_money_raised":57800000,"geolocation":{"type":"Point","coordinates":[-122.4000965,37.7938969]},"clean_state":"success"},{"name":"FirstRain","category_code":"tech","total_money_raised":57800000,"geolocation":{"type":"Point","coordinates":[-122.2862187,37.5583159]},"clean_state":"success"},{"name":"FirstRain","category_code":"tech","total_money_raised":57800000,"geolocation":{"type":"Point","coordinates":[-73.9786947,40.7521126]},"clean_state":"success"},{"name":"Semprius","category_code":"tech","total_money_raised":57700000,"geolocation":{"type":"Point","coordinates":[-78.8923523,35.8948471]},"clean_state":"success"},{"name":"OPX Biotechnologies","category_code":"tech","total_money_raised":57600000,"geolocation":{"type":"Point","coordinates":[-105.226353,40.02375]},"clean_state":"success"},{"name":"Gevo","category_code":"tech","total_money_raised":57000000,"geolocation":{"type":"Point","coordinates":[-104.856898,39.558982]},"clean_state":"success"},{"name":"BrainCells","category_code":"tech","total_money_raised":57000000,"geolocation":{"type":"Point","coordinates":[-117.237211,32.893712]},"clean_state":"success"},{"name":"ClickSquared","category_code":"tech","total_money_raised":56700000,"geolocation":{"type":"Point","coordinates":[-71.2709869,42.3913892]},"clean_state":"success"},{"name":"OnLive","category_code":"tech","total_money_raised":56500000,"geolocation":{"type":"Point","coordinates":[-95.712891,37.09024]},"clean_state":"success"},{"name":"ePals","category_code":"tech","total_money_raised":56300000,"geolocation":{"type":"Point","coordinates":[-77.416331,38.95424]},"clean_state":"success"},{"name":"Clarizen","category_code":"tech","total_money_raised":56000000,"geolocation":{"type":"Point","coordinates":[-122.328401,37.536044]},"clean_state":"success"},{"name":"Shocking Technologies","category_code":"tech","total_money_raised":55900000,"geolocation":{"type":"Point","coordinates":[-121.784279,37.261986]},"clean_state":"success"},{"name":"AppNeta","category_code":"tech","total_money_raised":55800000,"geolocation":{"type":"Point","coordinates":[-71.24756,42.318138]},"clean_state":"success"},{"name":"Esperion Therapeutics","category_code":"tech","total_money_raised":55800000,"geolocation":{"type":"Point","coordinates":[-83.5069834,42.3853985]},"clean_state":"success"},{"name":"spigit","category_code":"tech","total_money_raised":55600000,"geolocation":{"type":"Point","coordinates":[-77.3592746,38.9590083]},"clean_state":"success"},{"name":"spigit","category_code":"tech","total_money_raised":55600000,"geolocation":{"type":"Point","coordinates":[-0.1394759,51.5170385]},"clean_state":"success"},{"name":"spigit","category_code":"tech","total_money_raised":55600000,"geolocation":{"type":"Point","coordinates":[-121.8731805,37.6637279]},"clean_state":"success"},{"name":"Lehigh Technologies","category_code":"tech","total_money_raised":55500000,"geolocation":{"type":"Point","coordinates":[-81.80187,26.215648]},"clean_state":"success"},{"name":"Staccato Communications","category_code":"tech","total_money_raised":55500000,"geolocation":{"type":"Point","coordinates":[-117.194815,32.899333]},"clean_state":"success"},{"name":"Medallia","category_code":"tech","total_money_raised":55000000,"geolocation":{"type":"Point","coordinates":[-122.1797053,37.4520239]},"clean_state":"success"},{"name":"Alnara Pharmaceuticals","category_code":"tech","total_money_raised":55000000,"geolocation":{"type":"Point","coordinates":[-71.116031,42.3624253]},"clean_state":"success"},{"name":"Kosmix","category_code":"tech","total_money_raised":55000000,"geolocation":{"type":"Point","coordinates":[-122.0752224,37.3867729]},"clean_state":"success"},{"name":"Illumitex","category_code":"tech","total_money_raised":54400000,"geolocation":{"type":"Point","coordinates":[-97.838813,30.239294]},"clean_state":"success"},{"name":"Nordic Windpower","category_code":"tech","total_money_raised":54000000,"geolocation":{"type":"Point","coordinates":[-122.3153453,37.863464]},"clean_state":"success"},{"name":"CouponCabin","category_code":"tech","total_money_raised":54000000,"geolocation":{"type":"Point","coordinates":[-88.144397,42.052004]},"clean_state":"success"},{"name":"Spiceworks","category_code":"tech","total_money_raised":54000000,"geolocation":{"type":"Point","coordinates":[-97.753739,30.386601]},"clean_state":"success"},{"name":"Mimosa Systems","category_code":"tech","total_money_raised":53800000,"geolocation":{"type":"Point","coordinates":[-121.97514,37.379684]},"clean_state":"success"},{"name":"Mimosa Systems","category_code":"tech","total_money_raised":53800000,"geolocation":{"type":"Point","coordinates":[-75.7186146,45.343475]},"clean_state":"success"},{"name":"Mimosa Systems","category_code":"tech","total_money_raised":53800000,"geolocation":{"type":"Point","coordinates":[-0.93391,51.461674]},"clean_state":"success"},{"name":"Mimosa Systems","category_code":"tech","total_money_raised":53800000,"geolocation":{"type":"Point","coordinates":[-121.97514,37.379684]},"clean_state":"success"},{"name":"Mimosa Systems","category_code":"tech","total_money_raised":53800000,"geolocation":{"type":"Point","coordinates":[-75.7186146,45.343475]},"clean_state":"success"},{"name":"Mimosa Systems","category_code":"tech","total_money_raised":53800000,"geolocation":{"type":"Point","coordinates":[2.2376715,48.8386994]},"clean_state":"success"},{"name":"Mimosa Systems","category_code":"tech","total_money_raised":53800000,"geolocation":{"type":"Point","coordinates":[2.2376715,48.8386994]},"clean_state":"success"},{"name":"Mimosa Systems","category_code":"tech","total_money_raised":53800000,"geolocation":{"type":"Point","coordinates":[11.6823188,48.1520662]},"clean_state":"success"},{"name":"Mimosa Systems","category_code":"tech","total_money_raised":53800000,"geolocation":{"type":"Point","coordinates":[11.6823188,48.1520662]},"clean_state":"success"},{"name":"Siimpel Corporation","category_code":"tech","total_money_raised":53800000,"geolocation":{"type":"Point","coordinates":[-118.0215818,34.1086325]},"clean_state":"success"},{"name":"Mimosa Systems","category_code":"tech","total_money_raised":53800000,"geolocation":{"type":"Point","coordinates":[-0.93391,51.461674]},"clean_state":"success"},{"name":"diaDexus","category_code":"tech","total_money_raised":53700000,"geolocation":{"type":"Point","coordinates":[-122.3888507,37.6625446]},"clean_state":"success"},{"name":"HireVue","category_code":"tech","total_money_raised":53000000,"geolocation":{"type":"Point","coordinates":[-111.9137871,40.554467]},"clean_state":"success"},{"name":"Aster Data Systems","category_code":"tech","total_money_raised":53000000,"geolocation":{"type":"Point","coordinates":[-122.2475729,37.5068854]},"clean_state":"success"},{"name":"Living Proof","category_code":"tech","total_money_raised":53000000,"geolocation":{"type":"Point","coordinates":[-71.0802975,42.3661884]},"clean_state":"success"},{"name":"Seatwave","category_code":"tech","total_money_raised":53000000,"geolocation":{"type":"Point","coordinates":[-0.126236,51.500152]},"clean_state":"success"},{"name":"Allied Resource Corporation","category_code":"tech","total_money_raised":53000000,"geolocation":{"type":"Point","coordinates":[-75.4198731,40.0716406]},"clean_state":"success"},{"name":"Genizon BioSciences","category_code":"tech","total_money_raised":52800000,"geolocation":{"type":"Point","coordinates":[-73.7152901,45.4858119]},"clean_state":"success"},{"name":"Minted","category_code":"tech","total_money_raised":52700000,"geolocation":{"type":"Point","coordinates":[-122.403175,37.797435]},"clean_state":"success"},{"name":"Jobster","category_code":"tech","total_money_raised":52500000,"geolocation":{"type":"Point","coordinates":[-122.357242,47.617682]},"clean_state":"success"},{"name":"Marinus Pharmaceuticals","category_code":"tech","total_money_raised":52400000,"geolocation":{"type":"Point","coordinates":[-72.770691,41.29606]},"clean_state":"success"},{"name":"Anulex","category_code":"tech","total_money_raised":52300000,"geolocation":{"type":"Point","coordinates":[-93.4432438,44.9025336]},"clean_state":"success"},{"name":"Ruckus","category_code":"tech","total_money_raised":52200000,"geolocation":{"type":"Point","coordinates":[-95.712891,37.09024]},"clean_state":"success"},{"name":"InPhase Technologies","category_code":"tech","total_money_raised":52100000,"geolocation":{"type":"Point","coordinates":[-105.126533,40.138525]},"clean_state":"success"},{"name":"hi5","category_code":"tech","total_money_raised":52000000,"geolocation":{"type":"Point","coordinates":[-122.400558,37.788668]},"clean_state":"success"},{"name":"RGB Networks","category_code":"tech","total_money_raised":52000000,"geolocation":{"type":"Point","coordinates":[-122.0216271,37.4123706]},"clean_state":"success"},{"name":"Janrain","category_code":"tech","total_money_raised":51800000,"geolocation":{"type":"Point","coordinates":[-122.675838,45.484413]},"clean_state":"success"},{"name":"GenKyoTex","category_code":"tech","total_money_raised":51800000,"geolocation":{"type":"Point","coordinates":[6.1036257,46.1685443]},"clean_state":"success"},{"name":"Solera Networks","category_code":"tech","total_money_raised":51700000,"geolocation":{"type":"Point","coordinates":[-111.7276347,40.3310529]},"clean_state":"success"},{"name":"Kareo","category_code":"tech","total_money_raised":51400000,"geolocation":{"type":"Point","coordinates":[-117.8587,33.676444]},"clean_state":"success"},{"name":"Accellos","category_code":"tech","total_money_raised":51400000,"geolocation":{"type":"Point","coordinates":[-104.826256,38.833716]},"clean_state":"success"},{"name":"PGP Corporation","category_code":"tech","total_money_raised":51100000,"geolocation":{"type":"Point","coordinates":[-122.169958,37.481407]},"clean_state":"success"},{"name":"OptiMedica","category_code":"tech","total_money_raised":51000000,"geolocation":{"type":"Point","coordinates":[-121.9744545,37.3777985]},"clean_state":"success"},{"name":"Aylus Networks","category_code":"tech","total_money_raised":50700000,"geolocation":{"type":"Point","coordinates":[-71.432373,42.559391]},"clean_state":"success"},{"name":"Mantara","category_code":"tech","total_money_raised":50600000,"geolocation":{"type":"Point","coordinates":[-74.032177,40.726517]},"clean_state":"success"},{"name":"Infinite Power Solutions","category_code":"tech","total_money_raised":50600000,"geolocation":{"type":"Point","coordinates":[-105.1236849,39.5688576]},"clean_state":"success"},{"name":"Black Duck Software","category_code":"tech","total_money_raised":50500000,"geolocation":{"type":"Point","coordinates":[4.870312,52.340609]},"clean_state":"success"},{"name":"Black Duck Software","category_code":"tech","total_money_raised":50500000,"geolocation":{"type":"Point","coordinates":[-2.258714,53.524419]},"clean_state":"success"},{"name":"Black Duck Software","category_code":"tech","total_money_raised":50500000,"geolocation":{"type":"Point","coordinates":[-122.281484,37.556152]},"clean_state":"success"},{"name":"Black Duck Software","category_code":"tech","total_money_raised":50500000,"geolocation":{"type":"Point","coordinates":[-71.253998,42.398916]},"clean_state":"success"},{"name":"Viadeo","category_code":"tech","total_money_raised":50200000,"geolocation":{"type":"Point","coordinates":[2.3304161,48.8747064]},"clean_state":"success"},{"name":"Achievers","category_code":"tech","total_money_raised":50100000,"geolocation":{"type":"Point","coordinates":[-79.425455,43.637296]},"clean_state":"success"},{"name":"EPAM Systems","category_code":"tech","total_money_raised":50000000,"geolocation":{"type":"Point","coordinates":[-0.0881016,51.5154835]},"clean_state":"success"},{"name":"Nautilus Solar Energy","category_code":"tech","total_money_raised":50000000,"geolocation":{"type":"Point","coordinates":[-74.400246,40.702334]},"clean_state":"success"},{"name":"EPAM Systems","category_code":"tech","total_money_raised":50000000,"geolocation":{"type":"Point","coordinates":[-74.9035582,40.2252558]},"clean_state":"success"},{"name":"WildBlue","category_code":"tech","total_money_raised":50000000,"geolocation":{"type":"Point","coordinates":[-104.9875,39.6478]},"clean_state":"success"},{"name":"HealthCentral","category_code":"tech","total_money_raised":50000000,"geolocation":{"type":"Point","coordinates":[-77.068267,38.894403]},"clean_state":"success"},{"name":"Metacafe","category_code":"tech","total_money_raised":50000000,"geolocation":{"type":"Point","coordinates":[-122.159928,37.437328]},"clean_state":"success"},{"name":"Blowtorch","category_code":"tech","total_money_raised":50000000,"geolocation":{"type":"Point","coordinates":[-122.493561,37.862592]},"clean_state":"success"},{"name":"LoopNet","category_code":"tech","total_money_raised":50000000,"geolocation":{"type":"Point","coordinates":[-122.3931139,37.7759421]},"clean_state":"success"},{"name":"Nexenta Systems","category_code":"tech","total_money_raised":49900000,"geolocation":{"type":"Point","coordinates":[-122.161287,37.444098]},"clean_state":"success"},{"name":"Machinima","category_code":"tech","total_money_raised":49600000,"geolocation":{"type":"Point","coordinates":[-118.3740745,34.0906409]},"clean_state":"success"},{"name":"NovaSys","category_code":"tech","total_money_raised":49500000,"geolocation":{"type":"Point","coordinates":[-92.2894,34.7465]},"clean_state":"success"},{"name":"Limerick BioPharma","category_code":"tech","total_money_raised":49000000,"geolocation":{"type":"Point","coordinates":[-122.399382,37.658713]},"clean_state":"success"},{"name":"SpaceClaim","category_code":"tech","total_money_raised":49000000,"geolocation":{"type":"Point","coordinates":[-71.387308,42.462373]},"clean_state":"success"},{"name":"MyHeritage","category_code":"tech","total_money_raised":49000000,"geolocation":{"type":"Point","coordinates":[34.856173,32.029748]},"clean_state":"success"},{"name":"Mevio","category_code":"tech","total_money_raised":48900000,"geolocation":{"type":"Point","coordinates":[-122.392142,37.782263]},"clean_state":"success"},{"name":"Antenna Software","category_code":"tech","total_money_raised":48600000,"geolocation":{"type":"Point","coordinates":[-74.081365,40.720883]},"clean_state":"success"},{"name":"Friendster","category_code":"tech","total_money_raised":48500000,"geolocation":{"type":"Point","coordinates":[101.686855,3.139003]},"clean_state":"success"},{"name":"Nuon Therapeutics","category_code":"tech","total_money_raised":48100000,"geolocation":{"type":"Point","coordinates":[-122.325129,37.536402]},"clean_state":"success"},{"name":"Sittercity","category_code":"tech","total_money_raised":48100000,"geolocation":{"type":"Point","coordinates":[-87.6354206,41.8879192]},"clean_state":"success"},{"name":"Hammerhead Systems","category_code":"tech","total_money_raised":48000000,"geolocation":{"type":"Point","coordinates":[-122.049689,37.40006]},"clean_state":"success"},{"name":"OpenTable","category_code":"tech","total_money_raised":48000000,"geolocation":{"type":"Point","coordinates":[-122.405265,37.785647]},"clean_state":"success"},{"name":"Social Project","category_code":"tech","total_money_raised":47500000,"geolocation":{"type":"Point","coordinates":[-118.495981,34.01052]},"clean_state":"success"},{"name":"ice","category_code":"tech","total_money_raised":47000000,"geolocation":{"type":"Point","coordinates":[-95.712891,37.09024]},"clean_state":"success"},{"name":"Manthan Systems","category_code":"tech","total_money_raised":47000000,"geolocation":{"type":"Point","coordinates":[-88.034017,42.062816]},"clean_state":"success"},{"name":"Qteros","category_code":"tech","total_money_raised":47000000,"geolocation":{"type":"Point","coordinates":[-71.5854884,42.3253727]},"clean_state":"success"},{"name":"Manthan Systems","category_code":"tech","total_money_raised":47000000,"geolocation":{"type":"Point","coordinates":[77.5976747,12.9708947]},"clean_state":"success"},{"name":"Verimatrix","category_code":"tech","total_money_raised":46800000,"geolocation":{"type":"Point","coordinates":[-117.175733,32.903248]},"clean_state":"success"},{"name":"TARIS Biomedical","category_code":"tech","total_money_raised":46800000,"geolocation":{"type":"Point","coordinates":[-71.2459523,42.4236783]},"clean_state":"success"},{"name":"Loudeye","category_code":"tech","total_money_raised":46400000,"geolocation":{"type":"Point","coordinates":[-95.712891,37.09024]},"clean_state":"success"},{"name":"Gazelle","category_code":"tech","total_money_raised":46400000,"geolocation":{"type":"Point","coordinates":[-71.140762,42.354022]},"clean_state":"success"},{"name":"PlaySpan","category_code":"tech","total_money_raised":46300000,"geolocation":{"type":"Point","coordinates":[-121.961396,37.396312]},"clean_state":"success"},{"name":"textPlus","category_code":"tech","total_money_raised":46300000,"geolocation":{"type":"Point","coordinates":[-118.43679,33.984469]},"clean_state":"success"},{"name":"Zazzle","category_code":"tech","total_money_raised":46000000,"geolocation":{"type":"Point","coordinates":[-122.2013557,37.5108541]},"clean_state":"success"},{"name":"Mojiva","category_code":"tech","total_money_raised":45800000,"geolocation":{"type":"Point","coordinates":[-73.998662,40.7185614]},"clean_state":"success"},{"name":"Ostara","category_code":"tech","total_money_raised":45700000,"geolocation":{"type":"Point","coordinates":[-123.1233545,49.2883553]},"clean_state":"success"},{"name":"Zenoss","category_code":"tech","total_money_raised":45600000,"geolocation":{"type":"Point","coordinates":[-76.503171,38.97639]},"clean_state":"success"},{"name":"Zenoss","category_code":"tech","total_money_raised":45600000,"geolocation":{"type":"Point","coordinates":[-97.765313,30.379593]},"clean_state":"success"},{"name":"Streamezzo","category_code":"tech","total_money_raised":45500000,"geolocation":{"type":"Point","coordinates":[2.291225,48.872159]},"clean_state":"success"},{"name":"Next Jump","category_code":"tech","total_money_raised":45000000,"geolocation":{"type":"Point","coordinates":[-73.9869549,40.7451545]},"clean_state":"success"},{"name":"SpiralFrog","category_code":"tech","total_money_raised":45000000,"geolocation":{"type":"Point","coordinates":[-95.712891,37.09024]},"clean_state":"success"},{"name":"WANdisco","category_code":"tech","total_money_raised":45000000,"geolocation":{"type":"Point","coordinates":[-1.4629301,53.3800107]},"clean_state":"success"},{"name":"Joost","category_code":"tech","total_money_raised":45000000,"geolocation":{"type":"Point","coordinates":[-74.0094471,40.7464969]},"clean_state":"success"},{"name":"WANdisco","category_code":"tech","total_money_raised":45000000,"geolocation":{"type":"Point","coordinates":[-121.966395,37.769205]},"clean_state":"success"},{"name":"ngmoco","category_code":"tech","total_money_raised":44800000,"geolocation":{"type":"Point","coordinates":[-122.4015807,37.7705096]},"clean_state":"success"},{"name":"Cornerstone OnDemand","category_code":"tech","total_money_raised":44700000,"geolocation":{"type":"Point","coordinates":[-118.472577,34.028182]},"clean_state":"success"},{"name":"Grockit","category_code":"tech","total_money_raised":44700000,"geolocation":{"type":"Point","coordinates":[-122.419204,37.775196]},"clean_state":"success"},{"name":"Schoolnet","category_code":"tech","total_money_raised":44500000,"geolocation":{"type":"Point","coordinates":[-98.5379804,29.5825211]},"clean_state":"success"},{"name":"Delphix","category_code":"tech","total_money_raised":44500000,"geolocation":{"type":"Point","coordinates":[-122.1011815,37.4239496]},"clean_state":"success"},{"name":"Verified Identity Pass","category_code":"tech","total_money_raised":44400000,"geolocation":{"type":"Point","coordinates":[-81.222298,29.598713]},"clean_state":"success"},{"name":"Lala","category_code":"tech","total_money_raised":44200000,"geolocation":{"type":"Point","coordinates":[-122.154369,37.451151]},"clean_state":"success"},{"name":"Fon","category_code":"tech","total_money_raised":44000000,"geolocation":{"type":"Point","coordinates":[-3.632687,40.530724]},"clean_state":"success"},{"name":"Zend Technologies","category_code":"tech","total_money_raised":44000000,"geolocation":{"type":"Point","coordinates":[-122.008549,37.322385]},"clean_state":"success"},{"name":"oDesk","category_code":"tech","total_money_raised":44000000,"geolocation":{"type":"Point","coordinates":[-122.178557,37.479952]},"clean_state":"success"},{"name":"SAVO","category_code":"tech","total_money_raised":44000000,"geolocation":{"type":"Point","coordinates":[-87.640458,41.87675]},"clean_state":"success"},{"name":"Borrego Solar Systems","category_code":"tech","total_money_raised":44000000,"geolocation":{"type":"Point","coordinates":[-116.981232,32.8193566]},"clean_state":"success"},{"name":"MediQuest Therapeutics","category_code":"tech","total_money_raised":43700000,"geolocation":{"type":"Point","coordinates":[-122.205813,47.795302]},"clean_state":"success"},{"name":"SearchMe","category_code":"tech","total_money_raised":43600000,"geolocation":{"type":"Point","coordinates":[-122.084171,37.386665]},"clean_state":"success"},{"name":"SearchMe","category_code":"tech","total_money_raised":43600000,"geolocation":{"type":"Point","coordinates":[-122.402667,37.793473]},"clean_state":"success"},{"name":"Jaspersoft","category_code":"tech","total_money_raised":43500000,"geolocation":{"type":"Point","coordinates":[-122.403111,37.765388]},"clean_state":"success"},{"name":"Athenix","category_code":"tech","total_money_raised":43500000,"geolocation":{"type":"Point","coordinates":[-78.880602,35.8893657]},"clean_state":"success"},{"name":"Apieron","category_code":"tech","total_money_raised":43500000,"geolocation":{"type":"Point","coordinates":[-122.172713,37.482654]},"clean_state":"success"},{"name":"BelAir Networks","category_code":"tech","total_money_raised":43400000,"geolocation":{"type":"Point","coordinates":[-75.923844,45.348158]},"clean_state":"success"},{"name":"Roundbox","category_code":"tech","total_money_raised":43000000,"geolocation":{"type":"Point","coordinates":[-122.3978187,37.7864636]},"clean_state":"success"},{"name":"Roundbox","category_code":"tech","total_money_raised":43000000,"geolocation":{"type":"Point","coordinates":[-74.385196,40.79034]},"clean_state":"success"},{"name":"OpVista","category_code":"tech","total_money_raised":43000000,"geolocation":{"type":"Point","coordinates":[-121.9240273,37.4384108]},"clean_state":"success"},{"name":"Roundbox","category_code":"tech","total_money_raised":43000000,"geolocation":{"type":"Point","coordinates":[-0.5732556,44.8435586]},"clean_state":"success"},{"name":"Phreesia","category_code":"tech","total_money_raised":42700000,"geolocation":{"type":"Point","coordinates":[-73.985878,40.739794]},"clean_state":"success"},{"name":"Sonim Technologies","category_code":"tech","total_money_raised":42600000,"geolocation":{"type":"Point","coordinates":[-122.301534,37.553121]},"clean_state":"success"},{"name":"Mzinga","category_code":"tech","total_money_raised":42500000,"geolocation":{"type":"Point","coordinates":[-71.223359,42.489827]},"clean_state":"success"},{"name":"MaxWest Environmental Systems","category_code":"tech","total_money_raised":42500000,"geolocation":{"type":"Point","coordinates":[-81.269453,28.8028612]},"clean_state":"success"},{"name":"BroadSoft","category_code":"tech","total_money_raised":42500000,"geolocation":{"type":"Point","coordinates":[-77.209394,39.141511]},"clean_state":"success"},{"name":"WiChorus","category_code":"tech","total_money_raised":42500000,"geolocation":{"type":"Point","coordinates":[-121.943191,37.409096]},"clean_state":"success"},{"name":"FORMA Therapeutics","category_code":"tech","total_money_raised":42500000,"geolocation":{"type":"Point","coordinates":[-71.1156913,42.3595196]},"clean_state":"success"},{"name":"Kineto Wireless","category_code":"tech","total_money_raised":42400000,"geolocation":{"type":"Point","coordinates":[-121.918248,37.405474]},"clean_state":"success"},{"name":"Cerapedics","category_code":"tech","total_money_raised":42300000,"geolocation":{"type":"Point","coordinates":[-105.0932779,39.8957185]},"clean_state":"success"},{"name":"Vanu","category_code":"tech","total_money_raised":42200000,"geolocation":{"type":"Point","coordinates":[-71.086596,42.362993]},"clean_state":"success"},{"name":"LigoCyte Pharmaceuticals","category_code":"tech","total_money_raised":42100000,"geolocation":{"type":"Point","coordinates":[-111.0662396,45.6686485]},"clean_state":"success"},{"name":"Carrier IQ","category_code":"tech","total_money_raised":42000000,"geolocation":{"type":"Point","coordinates":[-122.0833286,37.3955775]},"clean_state":"success"},{"name":"Space-Time Insight","category_code":"tech","total_money_raised":42000000,"geolocation":{"type":"Point","coordinates":[-122.27977,37.555773]},"clean_state":"success"},{"name":"Jobfox","category_code":"tech","total_money_raised":42000000,"geolocation":{"type":"Point","coordinates":[-77.216969,38.92719]},"clean_state":"success"},{"name":"EnerTech Environmental","category_code":"tech","total_money_raised":42000000,"geolocation":{"type":"Point","coordinates":[-84.3507414,33.7726102]},"clean_state":"success"},{"name":"betaworks","category_code":"tech","total_money_raised":41800000,"geolocation":{"type":"Point","coordinates":[-74.00721,40.74034]},"clean_state":"success"},{"name":"Xobni","category_code":"tech","total_money_raised":41800000,"geolocation":{"type":"Point","coordinates":[-122.404052,37.789634]},"clean_state":"success"},{"name":"Nantero","category_code":"tech","total_money_raised":41500000,"geolocation":{"type":"Point","coordinates":[-71.130792,42.500324]},"clean_state":"success"},{"name":"ThermaSource","category_code":"tech","total_money_raised":41500000,"geolocation":{"type":"Point","coordinates":[-122.740198,38.482853]},"clean_state":"success"},{"name":"Quanterix","category_code":"tech","total_money_raised":41500000,"geolocation":{"type":"Point","coordinates":[-71.0917952,42.3663257]},"clean_state":"success"},{"name":"Clearleap","category_code":"tech","total_money_raised":41300000,"geolocation":{"type":"Point","coordinates":[-84.058708,34.070164]},"clean_state":"success"},{"name":"VistaGen Therapeutics","category_code":"tech","total_money_raised":41300000,"geolocation":{"type":"Point","coordinates":[-122.3843489,37.6656476]},"clean_state":"success"},{"name":"Lycera","category_code":"tech","total_money_raised":41000000,"geolocation":{"type":"Point","coordinates":[-83.733276,42.277416]},"clean_state":"success"},{"name":"Prosensa","category_code":"tech","total_money_raised":41000000,"geolocation":{"type":"Point","coordinates":[4.496199,52.158494]},"clean_state":"success"},{"name":"Prosensa","category_code":"tech","total_money_raised":41000000,"geolocation":{"type":"Point","coordinates":[4.4658637,52.1680188]},"clean_state":"success"},{"name":"BitTorrent","category_code":"tech","total_money_raised":40800000,"geolocation":{"type":"Point","coordinates":[-122.394668,37.790998]},"clean_state":"success"},{"name":"Vyatta","category_code":"tech","total_money_raised":40800000,"geolocation":{"type":"Point","coordinates":[-122.265869,37.524422]},"clean_state":"success"},{"name":"SCVNGR","category_code":"tech","total_money_raised":40800000,"geolocation":{"type":"Point","coordinates":[-71.0680027,42.3406534]},"clean_state":"success"},{"name":"Neoconix","category_code":"tech","total_money_raised":40700000,"geolocation":{"type":"Point","coordinates":[-122.0333152,37.3938849]},"clean_state":"success"},{"name":"Opsona","category_code":"tech","total_money_raised":40600000,"geolocation":{"type":"Point","coordinates":[-6.2962414,53.3401356]},"clean_state":"success"},{"name":"mFoundry","category_code":"tech","total_money_raised":40300000,"geolocation":{"type":"Point","coordinates":[-122.493561,37.862592]},"clean_state":"success"},{"name":"PowerReviews","category_code":"tech","total_money_raised":40100000,"geolocation":{"type":"Point","coordinates":[-122.393041,37.779558]},"clean_state":"success"},{"name":"PowerReviews","category_code":"tech","total_money_raised":40100000,"geolocation":{"type":"Point","coordinates":[-0.104408,51.527099]},"clean_state":"success"},{"name":"HydroPoint Data Systems","category_code":"tech","total_money_raised":40100000,"geolocation":{"type":"Point","coordinates":[-122.5995346,38.2297645]},"clean_state":"success"},{"name":"GT Solar","category_code":"tech","total_money_raised":40000000,"geolocation":{"type":"Point","coordinates":[-71.489876,42.830989]},"clean_state":"success"},{"name":"GT Solar","category_code":"tech","total_money_raised":40000000,"geolocation":{"type":"Point","coordinates":[-113.9934266,46.8719508]},"clean_state":"success"},{"name":"Visiogen","category_code":"tech","total_money_raised":40000000,"geolocation":{"type":"Point","coordinates":[-117.711994,33.646018]},"clean_state":"success"},{"name":"Streetline","category_code":"tech","total_money_raised":40000000,"geolocation":{"type":"Point","coordinates":[-122.409747,37.782085]},"clean_state":"success"},{"name":"GT Solar","category_code":"tech","total_money_raised":40000000,"geolocation":{"type":"Point","coordinates":[120.0113341,35.8640194]},"clean_state":"success"},{"name":"Zango","category_code":"tech","total_money_raised":40000000,"geolocation":{"type":"Point","coordinates":[-122.155668,47.579208]},"clean_state":"success"},{"name":"Splunk","category_code":"tech","total_money_raised":40000000,"geolocation":{"type":"Point","coordinates":[-122.390945,37.78274]},"clean_state":"success"},{"name":"Eka Systems","category_code":"tech","total_money_raised":40000000,"geolocation":{"type":"Point","coordinates":[-77.2610228,39.1878563]},"clean_state":"success"},{"name":"Albireo","category_code":"tech","total_money_raised":40000000,"geolocation":{"type":"Point","coordinates":[11.955296,57.6857201]},"clean_state":"success"},{"name":"eriQoo","category_code":"tech","total_money_raised":40000000,"geolocation":{"type":"Point","coordinates":[-121.9814354,37.4942858]},"clean_state":"success"},{"name":"Mainstream energy","category_code":"tech","total_money_raised":40000000,"geolocation":{"type":"Point","coordinates":[-120.6425269,35.2441852]},"clean_state":"success"},{"name":"Klout","category_code":"tech","total_money_raised":40000000,"geolocation":{"type":"Point","coordinates":[-118.2474287,34.0497638]},"clean_state":"success"},{"name":"Airband Communications Holdings","category_code":"tech","total_money_raised":39900000,"geolocation":{"type":"Point","coordinates":[-96.827495,32.948733]},"clean_state":"success"},{"name":"Autoquake","category_code":"tech","total_money_raised":39900000,"geolocation":{"type":"Point","coordinates":[-0.172364,51.543337]},"clean_state":"success"},{"name":"Xeround","category_code":"tech","total_money_raised":39800000,"geolocation":{"type":"Point","coordinates":[-122.1353561,47.5827406]},"clean_state":"success"},{"name":"OQO","category_code":"tech","total_money_raised":39800000,"geolocation":{"type":"Point","coordinates":[-122.415869,37.759117]},"clean_state":"success"},{"name":"Wetpaint","category_code":"tech","total_money_raised":39800000,"geolocation":{"type":"Point","coordinates":[-73.9964312,40.7237306]},"clean_state":"success"},{"name":"The Receivables Exchange","category_code":"tech","total_money_raised":39800000,"geolocation":{"type":"Point","coordinates":[-73.9752768,40.757651]},"clean_state":"success"},{"name":"Wetpaint","category_code":"tech","total_money_raised":39800000,"geolocation":{"type":"Point","coordinates":[-122.333253,47.603122]},"clean_state":"success"},{"name":"Firetide","category_code":"tech","total_money_raised":39800000,"geolocation":{"type":"Point","coordinates":[-121.932962,37.285133]},"clean_state":"success"},{"name":"Sepaton","category_code":"tech","total_money_raised":39500000,"geolocation":{"type":"Point","coordinates":[-71.592595,42.334732]},"clean_state":"success"},{"name":"NanoBio","category_code":"tech","total_money_raised":39000000,"geolocation":{"type":"Point","coordinates":[-83.6927623,42.3079711]},"clean_state":"success"},{"name":"Networked Insights","category_code":"tech","total_money_raised":38400000,"geolocation":{"type":"Point","coordinates":[-87.634173,41.879979]},"clean_state":"success"},{"name":"Networked Insights","category_code":"tech","total_money_raised":38400000,"geolocation":{"type":"Point","coordinates":[-73.986243,40.745559]},"clean_state":"success"},{"name":"Networked Insights","category_code":"tech","total_money_raised":38400000,"geolocation":{"type":"Point","coordinates":[-72.5254318,41.278528]},"clean_state":"success"},{"name":"Allegiance","category_code":"tech","total_money_raised":38300000,"geolocation":{"type":"Point","coordinates":[-111.9032625,40.554923]},"clean_state":"success"},{"name":"Message Systems","category_code":"tech","total_money_raised":38000000,"geolocation":{"type":"Point","coordinates":[-76.811526,39.169397]},"clean_state":"success"},{"name":"eBureau","category_code":"tech","total_money_raised":38000000,"geolocation":{"type":"Point","coordinates":[-94.159452,45.560899]},"clean_state":"success"},{"name":"WeatherBug","category_code":"tech","total_money_raised":38000000,"geolocation":{"type":"Point","coordinates":[-77.2630048,39.2009241]},"clean_state":"success"},{"name":"Pano Logic","category_code":"tech","total_money_raised":38000000,"geolocation":{"type":"Point","coordinates":[-122.15164,37.477037]},"clean_state":"success"},{"name":"Miragen Therapeutics","category_code":"tech","total_money_raised":38000000,"geolocation":{"type":"Point","coordinates":[-105.208027,40.068752]},"clean_state":"success"},{"name":"Open-Xchange","category_code":"tech","total_money_raised":37800000,"geolocation":{"type":"Point","coordinates":[11.0823953,49.4605351]},"clean_state":"success"},{"name":"uTest","category_code":"tech","total_money_raised":37800000,"geolocation":{"type":"Point","coordinates":[-71.52679,42.288291]},"clean_state":"success"},{"name":"Open-Xchange","category_code":"tech","total_money_raised":37800000,"geolocation":{"type":"Point","coordinates":[7.850863,51.029415]},"clean_state":"success"},{"name":"Open-Xchange","category_code":"tech","total_money_raised":37800000,"geolocation":{"type":"Point","coordinates":[-73.8625452,41.0662835]},"clean_state":"success"},{"name":"PlayFirst","category_code":"tech","total_money_raised":37700000,"geolocation":{"type":"Point","coordinates":[-122.40185,37.790346]},"clean_state":"success"},{"name":"Vindicia","category_code":"tech","total_money_raised":37600000,"geolocation":{"type":"Point","coordinates":[-122.252115,37.538418]},"clean_state":"success"},{"name":"Ozmo Devices","category_code":"tech","total_money_raised":37500000,"geolocation":{"type":"Point","coordinates":[-122.117722,37.446152]},"clean_state":"success"},{"name":"Intradigm Corporation","category_code":"tech","total_money_raised":37400000,"geolocation":{"type":"Point","coordinates":[-122.110835,37.435768]},"clean_state":"success"},{"name":"Become","category_code":"tech","total_money_raised":37200000,"geolocation":{"type":"Point","coordinates":[-122.07259,37.424801]},"clean_state":"success"},{"name":"Vringo","category_code":"tech","total_money_raised":37000000,"geolocation":{"type":"Point","coordinates":[-73.9717364,40.7550005]},"clean_state":"success"},{"name":"Transera Communications","category_code":"tech","total_money_raised":37000000,"geolocation":{"type":"Point","coordinates":[-122.0622892,37.3521697]},"clean_state":"success"},{"name":"Quark Pharmaceuticals","category_code":"tech","total_money_raised":37000000,"geolocation":{"type":"Point","coordinates":[-122.060501,37.5511524]},"clean_state":"success"},{"name":"Northern Power Systems","category_code":"tech","total_money_raised":37000000,"geolocation":{"type":"Point","coordinates":[-72.486152,44.170982]},"clean_state":"success"},{"name":"SundaySky","category_code":"tech","total_money_raised":37000000,"geolocation":{"type":"Point","coordinates":[34.8388443,32.1115098]},"clean_state":"success"},{"name":"RipCode","category_code":"tech","total_money_raised":36500000,"geolocation":{"type":"Point","coordinates":[-96.70737,32.959908]},"clean_state":"success"},{"name":"RipCode","category_code":"tech","total_money_raised":36500000,"geolocation":{"type":"Point","coordinates":[-97.748795,30.402252]},"clean_state":"success"},{"name":"Eye-Fi","category_code":"tech","total_money_raised":36500000,"geolocation":{"type":"Point","coordinates":[-122.072479,37.392428]},"clean_state":"success"},{"name":"CCP Games","category_code":"tech","total_money_raised":36300000,"geolocation":{"type":"Point","coordinates":[-84.120458,33.817752]},"clean_state":"success"},{"name":"Shozu","category_code":"tech","total_money_raised":36000000,"geolocation":{"type":"Point","coordinates":[-122.402683,37.771706]},"clean_state":"success"},{"name":"Cotendo","category_code":"tech","total_money_raised":36000000,"geolocation":{"type":"Point","coordinates":[-122.259568,37.504764]},"clean_state":"success"},{"name":"InMage Systems","category_code":"tech","total_money_raised":35900000,"geolocation":{"type":"Point","coordinates":[-121.971487,37.381034]},"clean_state":"success"},{"name":"Akimbo","category_code":"tech","total_money_raised":35700000,"geolocation":{"type":"Point","coordinates":[-122.320534,37.548482]},"clean_state":"success"},{"name":"Airbiquity","category_code":"tech","total_money_raised":35400000,"geolocation":{"type":"Point","coordinates":[-122.3374506,47.6042933]},"clean_state":"success"},{"name":"inContact","category_code":"tech","total_money_raised":35300000,"geolocation":{"type":"Point","coordinates":[-111.853717,40.6110797]},"clean_state":"success"},{"name":"ID Analytics","category_code":"tech","total_money_raised":35200000,"geolocation":{"type":"Point","coordinates":[-117.1565,32.7154]},"clean_state":"success"},{"name":"Topsy Labs","category_code":"tech","total_money_raised":35200000,"geolocation":{"type":"Point","coordinates":[-122.419204,37.775196]},"clean_state":"success"},{"name":"iScience Interventional","category_code":"tech","total_money_raised":35200000,"geolocation":{"type":"Point","coordinates":[-122.1807356,37.4805104]},"clean_state":"success"},{"name":"One97 Communications","category_code":"tech","total_money_raised":35000000,"geolocation":{"type":"Point","coordinates":[77.3223915,28.5888843]},"clean_state":"success"},{"name":"Epocrates","category_code":"tech","total_money_raised":35000000,"geolocation":{"type":"Point","coordinates":[-122.291394,37.544987]},"clean_state":"success"},{"name":"FastBooking","category_code":"tech","total_money_raised":35000000,"geolocation":{"type":"Point","coordinates":[-95.712891,37.09024]},"clean_state":"success"},{"name":"ResearchGate","category_code":"tech","total_money_raised":35000000,"geolocation":{"type":"Point","coordinates":[13.3842605,52.5308516]},"clean_state":"success"},{"name":"One97 Communications","category_code":"tech","total_money_raised":35000000,"geolocation":{"type":"Point","coordinates":[80.2292154,13.0364759]},"clean_state":"success"},{"name":"Nangate","category_code":"tech","total_money_raised":35000000,"geolocation":{"type":"Point","coordinates":[77.2419522,28.53536]},"clean_state":"success"},{"name":"DivX","category_code":"tech","total_money_raised":35000000,"geolocation":{"type":"Point","coordinates":[-117.203309,32.880882]},"clean_state":"success"},{"name":"Telnic","category_code":"tech","total_money_raised":35000000,"geolocation":{"type":"Point","coordinates":[-0.134078,51.518107]},"clean_state":"success"},{"name":"Nangate","category_code":"tech","total_money_raised":35000000,"geolocation":{"type":"Point","coordinates":[-122.0213965,37.4043966]},"clean_state":"success"},{"name":"Asetek","category_code":"tech","total_money_raised":34900000,"geolocation":{"type":"Point","coordinates":[-121.828041,37.320796]},"clean_state":"success"},{"name":"Integrate","category_code":"tech","total_money_raised":34800000,"geolocation":{"type":"Point","coordinates":[-74.0353787,40.7481039]},"clean_state":"success"},{"name":"VytronUS","category_code":"tech","total_money_raised":34800000,"geolocation":{"type":"Point","coordinates":[-122.032776,37.394258]},"clean_state":"success"},{"name":"Integrate","category_code":"tech","total_money_raised":34800000,"geolocation":{"type":"Point","coordinates":[-74.0353787,40.7481039]},"clean_state":"success"},{"name":"Pontis","category_code":"tech","total_money_raised":34700000,"geolocation":{"type":"Point","coordinates":[-58.4541925,-34.5631882]},"clean_state":"success"},{"name":"Pontis","category_code":"tech","total_money_raised":34700000,"geolocation":{"type":"Point","coordinates":[34.8824253,32.1980455]},"clean_state":"success"},{"name":"Imagine Communications","category_code":"tech","total_money_raised":34700000,"geolocation":{"type":"Point","coordinates":[-117.2398594,32.9388917]},"clean_state":"success"},{"name":"SendMe","category_code":"tech","total_money_raised":34500000,"geolocation":{"type":"Point","coordinates":[-122.39783,37.787126]},"clean_state":"success"},{"name":"FiberZone Networks","category_code":"tech","total_money_raised":34400000,"geolocation":{"type":"Point","coordinates":[-77.09352,38.982194]},"clean_state":"success"},{"name":"AccountNow","category_code":"tech","total_money_raised":34100000,"geolocation":{"type":"Point","coordinates":[-122.001446,37.769922]},"clean_state":"success"},{"name":"CE Info Systems","category_code":"tech","total_money_raised":34000000,"geolocation":{"type":"Point","coordinates":[77.2078207,28.5360568]},"clean_state":"success"},{"name":"OZ Communications","category_code":"tech","total_money_raised":34000000,"geolocation":{"type":"Point","coordinates":[-73.5687974,45.4965703]},"clean_state":"success"},{"name":"TicketsNow","category_code":"tech","total_money_raised":34000000,"geolocation":{"type":"Point","coordinates":[-88.027569,42.050903]},"clean_state":"success"},{"name":"Razorsight","category_code":"tech","total_money_raised":34000000,"geolocation":{"type":"Point","coordinates":[-77.367981,38.872668]},"clean_state":"success"},{"name":"Vuze","category_code":"tech","total_money_raised":34000000,"geolocation":{"type":"Point","coordinates":[-122.2262606,37.4858654]},"clean_state":"success"},{"name":"CoalTek","category_code":"tech","total_money_raised":33800000,"geolocation":{"type":"Point","coordinates":[-84.193858,33.84819]},"clean_state":"success"},{"name":"Photobucket","category_code":"tech","total_money_raised":33700000,"geolocation":{"type":"Point","coordinates":[-122.332085,47.601803]},"clean_state":"success"},{"name":"Conductor","category_code":"tech","total_money_raised":33600000,"geolocation":{"type":"Point","coordinates":[-73.982596,40.746332]},"clean_state":"success"},