[{"address":"180 El Camino Real, Ste 1140","latitude":37.4438413442,"longitude":-122.1702646794,"labeledLatLngs":[{"label":"display","lat":37.4438413442,"lng":-122.1702646794}],"postalCode":"94304","cc":"US","city":"Palo Alto","state":"CA","country":"United States","formattedAddress":["180 El Camino Real, Ste 1140","Palo Alto, CA 94304","United States"],"crossStreet":null,"neighborhood":null,"geolocation":{"type":"Point","coordinates":[-122.1702646794,37.4438413442]}},{"address":"1524 20th St","latitude":37.7600600515,"longitude":-122.3967928466,"labeledLatLngs":[{"label":"display","lat":37.7600600515,"lng":-122.3967928466},{"label":"entrance","lat":37.760086,"lng":-122.396827}],"postalCode":"94107","cc":"US","city":"San Francisco","state":"CA","country":"United States","formattedAddress":["1524 20th St (at Connecticut St)","San Francisco, CA 94107","United States"],"crossStreet":"at Connecticut St","neighborhood":null,"geolocation":{"type":"Point","coordinates":[-122.3967928466,37.7600600515]}},{"address":"901 Valencia St","latitude":37.7583995865,"longitude":-122.4211263657,"labeledLatLngs":[{"label":"display","lat":37.7583995865,"lng":-122.4211263657}],"postalCode":"94110","cc":"US","city":"San Francisco","state":"CA","country":"United States","formattedAddress":["901 Valencia St (20th Street)","San Francisco, CA 94110","United States"],"crossStreet":"20th Street","neighborhood":null,"geolocation":{"type":"Point","coordinates":[-122.4211263657,37.7583995865]}},{"address":"427 Elm St","latitude":41.2733638266,"longitude":-72.9574697577,"labeledLatLngs":[{"label":"display","lat":41.2733638266,"lng":-72.9574697577},{"label":"entrance","lat":41.273304,"lng":-72.957372}],"postalCode":"06516","cc":"US","city":"West Haven","state":"CT","country":"United States","formattedAddress":["427 Elm St","West Haven, CT 06516","United States"],"crossStreet":null,"neighborhood":null,"geolocation":{"type":"Point","coordinates":[-72.9574697577,41.2733638266]}},{"address":"972 Gayley Ave","latitude":34.0625171,"longitude":-118.4480269,"labeledLatLngs":[{"label":"display","lat":34.0625171,"lng":-118.4480269}],"postalCode":"90024","cc":"US","city":"Los Angeles","state":"CA","country":"United States","formattedAddress":["972 Gayley Ave","Los Angeles, CA 90024","United States"],"crossStreet":null,"neighborhood":null,"geolocation":{"type":"Point","coordinates":[-118.4480269,34.0625171]}},{"address":"292 Ashland Place","latitude":40.6862070787,"longitude":-73.9787515925,"labeledLatLngs":[{"label":"display","lat":40.6862070787,"lng":-73.9787515925}],"postalCode":"11217","cc":"US","city":"Brooklyn","state":"NY","country":"United States","formattedAddress":["292 Ashland Place","Brooklyn, NY 11217","United States"],"crossStreet":null,"neighborhood":null,"geolocation":{"type":"Point","coordinates":[-73.9787515925,40.6862070787]}},{"address":null,"latitude":42.8210582363,"longitude":-88.7248209876,"labeledLatLngs":[{"label":"display","lat":42.8210582363,"lng":-88.7248209876}],"postalCode":null,"cc":"US","city":"Whitewater","state":"WI","country":"United States","formattedAddress":["Whitewater, WI","United States"],"crossStreet":null,"neighborhood":null,"geolocation":{"type":"Point","coordinates":[-88.7248209876,42.8210582363]}},{"address":"606 1st Ave","latitude":40.7442426,"longitude":-73.9729059,"labeledLatLngs":[{"label":"display","lat":40.7442426,"lng":-73.9729059}],"postalCode":"10016","cc":"US","city":"New York","state":"NY","country":"United States","formattedAddress":["606 1st Ave","New York, NY 10016","United States"],"crossStreet":null,"neighborhood":null,"geolocation":{"type":"Point","coordinates":[-73.9729059,40.7442426]}},{"address":null,"latitude":41.9888463538,"longitude":-71.5197229931,"labeledLatLngs":[{"label":"display","lat":41.9888463538,"lng":-71.5197229931}],"postalCode":null,"cc":"US","city":null,"state":"Rhode Island","country":"United States","formattedAddress":["Rhode Island","United States"],"crossStreet":null,"neighborhood":null,"geolocation":{"type":"Point","coordinates":[-71.5197229931,41.9888463538]}},{"address":null,"latitude":37.9224335683,"longitude":-122.3068292682,"labeledLatLngs":[{"label":"display","lat":37.9224335683,"lng":-122.3068292682}],"postalCode":"94530","cc":"US","city":"El Cerrito","state":"CA","country":"United States","formattedAddress":["El Cerrito, CA 94530","United States"],"crossStreet":null,"neighborhood":null,"geolocation":{"type":"Point","coordinates":[-122.3068292682,37.9224335683]}},{"address":"162 N 4th St","latitude":40.7158037925,"longitude":-73.9592339797,"labeledLatLngs":[{"label":"display","lat":40.7158037925,"lng":-73.9592339797},{"label":"entrance","lat":40.715792,"lng":-73.959071}],"postalCode":"11211","cc":"US","city":"Brooklyn","state":"NY","country":"United States","formattedAddress":["162 N 4th St (at Bedford Ave)","Brooklyn, NY 11211","United States"],"crossStreet":"at Bedford Ave","neighborhood":null,"geolocation":{"type":"Point","coordinates":[-73.9592339797,40.7158037925]}},{"address":"996 Mission St","latitude":37.781397,"longitude":-122.408446,"labeledLatLngs":[{"label":"display","lat":37.781397,"lng":-122.408446},{"label":"entrance","lat":37.781203,"lng":-122.40862}],"postalCode":"94103","cc":"US","city":"San Francisco","state":"CA","country":"United States","formattedAddress":["996 Mission St","San Francisco, CA 94103","United States"],"crossStreet":null,"neighborhood":null,"geolocation":{"type":"Point","coordinates":[-122.408446,37.781397]}},{"address":"138 Church Street","latitude":44.3283764017,"longitude":-74.129884243,"labeledLatLngs":[{"label":"display","lat":44.3283764017,"lng":-74.129884243}],"postalCode":"12983","cc":"US","city":"Saranac Lake","state":"NY","country":"United States","formattedAddress":["138 Church Street (Woodruff)","Saranac Lake, NY 12983","United States"],"crossStreet":"Woodruff","neighborhood":null,"geolocation":{"type":"Point","coordinates":[-74.129884243,44.3283764017]}},{"address":"1700 Lincoln Blvd, Venice Beach","latitude":33.996908,"longitude":-118.4579537,"labeledLatLngs":[{"label":"display","lat":33.996908,"lng":-118.4579537}],"postalCode":"90291","cc":"US","city":"Venice","state":"CA","country":"United States","formattedAddress":["1700 Lincoln Blvd, Venice Beach (Nowita Place)","Venice, CA 90291","United States"],"crossStreet":"Nowita Place","neighborhood":null,"geolocation":{"type":"Point","coordinates":[-118.4579537,33.996908]}},{"address":"7601 Windrose Ave, Unit 100","latitude":33.0819256,"longitude":-96.8268579,"labeledLatLngs":[{"label":"display","lat":33.0819256,"lng":-96.8268579}],"postalCode":"75024","cc":"US","city":"Plano","state":"TX","country":"United States","formattedAddress":["7601 Windrose Ave, Unit 100","Plano, TX 75024","United States"],"crossStreet":null,"neighborhood":null,"geolocation":{"type":"Point","coordinates":[-96.8268579,33.0819256]}},{"address":"3930 Judah St","latitude":37.7606151331,"longitude":-122.5042547061,"labeledLatLngs":[{"label":"display","lat":37.7606151331,"lng":-122.5042547061}],"postalCode":"94122","cc":"US","city":"San Francisco","state":"CA","country":"United States","formattedAddress":["3930 Judah St (btw 44th Ave & 45th Ave)","San Francisco, CA 94122","United States"],"crossStreet":"btw 44th Ave & 45th Ave","neighborhood":null,"geolocation":{"type":"Point","coordinates":[-122.5042547061,37.7606151331]}},{"address":"2502 E Camelback Rd, Ste 135","latitude":33.510369927,"longitude":-112.027740589,"labeledLatLngs":[{"label":"display","lat":33.510369927,"lng":-112.027740589}],"postalCode":"85016","cc":"US","city":"Phoenix","state":"AZ","country":"United States","formattedAddress":["2502 E Camelback Rd, Ste 135","Phoenix, AZ 85016","United States"],"crossStreet":null,"neighborhood":null,"geolocation":{"type":"Point","coordinates":[-112.027740589,33.510369927]}},{"address":"860 S, CA-1, Ste 100","latitude":33.902440869,"longitude":-118.3951335656,"labeledLatLngs":[{"label":"display","lat":33.902440869,"lng":-118.3951335656}],"postalCode":"90245","cc":"US","city":"El Segundo","state":"CA","country":"United States","formattedAddress":["860 S, CA-1, Ste 100","El Segundo, CA 90245","United States"],"crossStreet":null,"neighborhood":null,"geolocation":{"type":"Point","coordinates":[-118.3951335656,33.902440869]}},{"address":"1500 Main St","latitude":34.7342741514,"longitude":-92.2734018698,"labeledLatLngs":[{"label":"display","lat":34.7342741514,"lng":-92.2734018698}],"postalCode":"72202","cc":"US","city":"Little Rock","state":"AR","country":"United States","formattedAddress":["1500 Main St (at W 15th St)","Little Rock, AR 72202","United States"],"crossStreet":"at W 15th St","neighborhood":null,"geolocation":{"type":"Point","coordinates":[-92.2734018698,34.7342741514]}},{"address":"534 Metropolitan Ave","latitude":40.7139895852,"longitude":-73.9511712604,"labeledLatLngs":[{"label":"display","lat":40.7139895852,"lng":-73.9511712604},{"label":"entrance","lat":40.713955,"lng":-73.951029}],"postalCode":"11211","cc":"US","city":"Brooklyn","state":"NY","country":"United States","formattedAddress":["534 Metropolitan Ave (btwn Union Ave & Lorimer St)","Brooklyn, NY 11211","United States"],"crossStreet":"btwn Union Ave & Lorimer St","neighborhood":null,"geolocation":{"type":"Point","coordinates":[-73.9511712604,40.7139895852]}},{"address":null,"latitude":25.816381,"longitude":-80.199823,"labeledLatLngs":[{"label":"display","lat":25.816381,"lng":-80.199823}],"postalCode":"33127","cc":"US","city":"Miami","state":"FL","country":"United States","formattedAddress":["NW 44th","Miami, FL 33127","United States"],"crossStreet":"NW 44th","neighborhood":"Little Haiti","geolocation":{"type":"Point","coordinates":[-80.199823,25.816381]}},{"address":"941 N Virginia St","latitude":39.5369917422,"longitude":-119.8167063793,"labeledLatLngs":[{"label":"display","lat":39.5369917422,"lng":-119.8167063793},{"label":"entrance","lat":39.537007,"lng":-119.816761}],"postalCode":"89503","cc":"US","city":"Reno","state":"NV","country":"United States","formattedAddress":["941 N Virginia St","Reno, NV 89503","United States"],"crossStreet":null,"neighborhood":null,"geolocation":{"type":"Point","coordinates":[-119.8167063793,39.5369917422]}},{"address":"21247 Hawthorne Blvd","latitude":33.8359134391,"longitude":-118.3537671923,"labeledLatLngs":[{"label":"display","lat":33.8359134391,"lng":-118.3537671923},{"label":"entrance","lat":33.836038,"lng":-118.353637}],"postalCode":"90503","cc":"US","city":"Torrance","state":"CA","country":"United States","formattedAddress":["21247 Hawthorne Blvd (Fashion Way)","Torrance, CA 90503","United States"],"crossStreet":"Fashion Way","neighborhood":null,"geolocation":{"type":"Point","coordinates":[-118.3537671923,33.8359134391]}},{"address":"1321 1st Ave","latitude":40.7671282765,"longitude":-73.9568462223,"labeledLatLngs":[{"label":"display","lat":40.7671282765,"lng":-73.9568462223}],"postalCode":"10021","cc":"US","city":"New York","state":"NY","country":"United States","formattedAddress":["1321 1st Ave","New York, NY 10021","United States"],"crossStreet":null,"neighborhood":null,"geolocation":{"type":"Point","coordinates":[-73.9568462223,40.7671282765]}},{"address":"39 John F. Kennedy St","latitude":42.3728442,"longitude":-71.1200891,"labeledLatLngs":[{"label":"display","lat":42.3728442,"lng":-71.1200891}],"postalCode":"02138","cc":"US","city":"Cambridge","state":"MA","country":"United States","formattedAddress":["39 John F. Kennedy St","Cambridge, MA 02138","United States"],"crossStreet":null,"neighborhood":null,"geolocation":{"type":"Point","coordinates":[-71.1200891,42.3728442]}},{"address":"13003 Ventura Blvd","latitude":34.1458033403,"longitude":-118.416349219,"labeledLatLngs":[{"label":"display","lat":34.1458033403,"lng":-118.416349219}],"postalCode":"91604","cc":"US","city":"Studio City","state":"CA","country":"United States","formattedAddress":["13003 Ventura Blvd","Studio City, CA 91604","United States"],"crossStreet":null,"neighborhood":null,"geolocation":{"type":"Point","coordinates":[-118.416349219,34.1458033403]}},{"address":"166 N 4th Street","latitude":40.7156985,"longitude":-73.9590152,"labeledLatLngs":[{"label":"display","lat":40.7156985,"lng":-73.9590152}],"postalCode":"11211","cc":"US","city":"Brooklyn","state":"NY","country":"United States","formattedAddress":["166 N 4th Street (btwn Bedford & Driggs Ave)","Brooklyn, NY 11211","United States"],"crossStreet":"btwn Bedford & Driggs Ave","neighborhood":null,"geolocation":{"type":"Point","coordinates":[-73.9590152,40.7156985]}},{"address":"238 Bedford Ave","latitude":40.71616,"longitude":-73.95953,"labeledLatLngs":[{"label":"display","lat":40.71616,"lng":-73.95953}],"postalCode":"11249","cc":"US","city":"Brooklyn","state":"NY","country":"United States","formattedAddress":["238 Bedford Ave","Brooklyn, NY 11249","United States"],"crossStreet":null,"neighborhood":null,"geolocation":{"type":"Point","coordinates":[-73.95953,40.71616]}},{"address":null,"latitude":32.755421,"longitude":-117.09577,"labeledLatLngs":[{"label":"display","lat":32.755421,"lng":-117.09577}],"postalCode":"92115","cc":"US","city":"San Diego","state":"CA","country":"United States","formattedAddress":["San Diego, CA 92115","United States"],"crossStreet":null,"neighborhood":null,"geolocation":{"type":"Point","coordinates":[-117.09577,32.755421]}},{"address":"5537 Weslayan Street","latitude":29.7219061,"longitude":-95.4405845,"labeledLatLngs":[{"label":"display","lat":29.7219061,"lng":-95.4405845}],"postalCode":"77005","cc":"US","city":"Houston","state":"TX","country":"United States","formattedAddress":["5537 Weslayan Street","Houston, TX 77005","United States"],"crossStreet":null,"neighborhood":null,"geolocation":{"type":"Point","coordinates":[-95.4405845,29.7219061]}},{"address":null,"latitude":41.5907624415,"longitude":-84.2231736865,"labeledLatLngs":[{"label":"display","lat":41.5907624415,"lng":-84.2231736865}],"postalCode":"43567","cc":"US","city":"Wauseon","state":"OH","country":"United States","formattedAddress":["Wauseon, OH 43567","United States"],"crossStreet":null,"neighborhood":null,"geolocation":{"type":"Point","coordinates":[-84.2231736865,41.5907624415]}},{"address":"3126 Los Feliz Blvd","latitude":34.1239040329,"longitude":-118.2672965055,"labeledLatLngs":[{"label":"display","lat":34.1239040329,"lng":-118.2672965055}],"postalCode":"90039","cc":"US","city":"Glendale","state":"CA","country":"United States","formattedAddress":["3126 Los Feliz Blvd (at Garden Ave)","Glendale, CA 90039","United States"],"crossStreet":"at Garden Ave","neighborhood":null,"geolocation":{"type":"Point","coordinates":[-118.2672965055,34.1239040329]}},{"address":"1370 S State St","latitude":40.74006,"longitude":-111.88849,"labeledLatLngs":[{"label":"display","lat":40.74006,"lng":-111.88849},{"label":"entrance","lat":40.740021,"lng":-111.888448}],"postalCode":"84115","cc":"US","city":"Salt Lake City","state":"UT","country":"United States","formattedAddress":["1370 S State St","Salt Lake City, UT 84115","United States"],"crossStreet":null,"neighborhood":null,"geolocation":{"type":"Point","coordinates":[-111.88849,40.74006]}},{"address":"832 S Olive St","latitude":34.0441330626,"longitude":-118.2575999994,"labeledLatLngs":[{"label":"display","lat":34.0441330626,"lng":-118.2575999994}],"postalCode":"90014","cc":"US","city":"Los Angeles","state":"CA","country":"United States","formattedAddress":["832 S Olive St (btwn 8th & 9th St)","Los Angeles, CA 90014","United States"],"crossStreet":"btwn 8th & 9th St","neighborhood":null,"geolocation":{"type":"Point","coordinates":[-118.2575999994,34.0441330626]}},{"address":"4700 Admiralty Way","latitude":33.9799088168,"longitude":-118.4390330315,"labeledLatLngs":[{"label":"display","lat":33.9799088168,"lng":-118.4390330315}],"postalCode":"90292","cc":"US","city":"Marina del Rey","state":"CA","country":"United States","formattedAddress":["4700 Admiralty Way","Marina del Rey, CA 90292","United States"],"crossStreet":null,"neighborhood":null,"geolocation":{"type":"Point","coordinates":[-118.4390330315,33.9799088168]}},{"address":"410 Avenue of the Americas","latitude":40.7338604075,"longitude":-73.9993754258,"labeledLatLngs":[{"label":"display","lat":40.7338604075,"lng":-73.9993754258},{"label":"entrance","lat":40.733791,"lng":-73.999227}],"postalCode":"10011","cc":"US","city":"New York","state":"NY","country":"United States","formattedAddress":["410 Avenue of the Americas (btw 8th and 9th Sts)","New York, NY 10011","United States"],"crossStreet":"btw 8th and 9th Sts","neighborhood":null,"geolocation":{"type":"Point","coordinates":[-73.9993754258,40.7338604075]}},{"address":"Grand Central Terminal","latitude":40.7525420403,"longitude":-73.9773813588,"labeledLatLngs":[{"label":"display","lat":40.7525420403,"lng":-73.9773813588}],"postalCode":"10017","cc":"US","city":"New York","state":"NY","country":"United States","formattedAddress":["Grand Central Terminal (Dining Concourse)","New York, NY 10017","United States"],"crossStreet":"Dining Concourse","neighborhood":null,"geolocation":{"type":"Point","coordinates":[-73.9773813588,40.7525420403]}},{"address":"2520 Glendale Blvd","latitude":34.1028766,"longitude":-118.2584507,"labeledLatLngs":[{"label":"display","lat":34.1028766,"lng":-118.2584507}],"postalCode":"90039","cc":"US","city":"Los Angeles","state":"CA","country":"United States","formattedAddress":["2520 Glendale Blvd","Los Angeles, CA 90039","United States"],"crossStreet":null,"neighborhood":null,"geolocation":{"type":"Point","coordinates":[-118.2584507,34.1028766]}},{"address":"3996 Hillsboro Pike","latitude":36.104461,"longitude":-86.814532,"labeledLatLngs":[{"label":"display","lat":36.104461,"lng":-86.814532}],"postalCode":"37215","cc":"US","city":"Nashville","state":"TN","country":"United States","formattedAddress":["3996 Hillsboro Pike","Nashville, TN 37215","United States"],"crossStreet":null,"neighborhood":null,"geolocation":{"type":"Point","coordinates":[-86.814532,36.104461]}},{"address":"5218 Church Ave","latitude":40.6461094413,"longitude":-73.9214342462,"labeledLatLngs":[{"label":"display","lat":40.6461094413,"lng":-73.9214342462}],"postalCode":"11203","cc":"US","city":"Brooklyn","state":"NY","country":"United States","formattedAddress":["5218 Church Ave","Brooklyn, NY 11203","United States"],"crossStreet":null,"neighborhood":null,"geolocation":{"type":"Point","coordinates":[-73.9214342462,40.6461094413]}},{"address":"882 Sutter St","latitude":37.7884671561,"longitude":-122.4148023971,"labeledLatLngs":[{"label":"display","lat":37.7884671561,"lng":-122.4148023971}],"postalCode":"94109","cc":"US","city":"San Francisco","state":"CA","country":"United States","formattedAddress":["882 Sutter St (Leavenworth St)","San Francisco, CA 94109","United States"],"crossStreet":"Leavenworth St","neighborhood":null,"geolocation":{"type":"Point","coordinates":[-122.4148023971,37.7884671561]}},{"address":"2619 S Woodlands Village Blvd","latitude":35.1771791,"longitude":-111.6684749,"labeledLatLngs":[{"label":"display","lat":35.1771791,"lng":-111.6684749},{"label":"entrance","lat":35.177034,"lng":-111.66874}],"postalCode":"86001","cc":"US","city":"Flagstaff","state":"AZ","country":"United States","formattedAddress":["2619 S Woodlands Village Blvd","Flagstaff, AZ 86001","United States"],"crossStreet":null,"neighborhood":null,"geolocation":{"type":"Point","coordinates":[-111.6684749,35.1771791]}},{"address":"1700 Post Oak Blvd, Ste 180","latitude":29.7493275,"longitude":-95.4622631,"labeledLatLngs":[{"label":"display","lat":29.7493275,"lng":-95.4622631}],"postalCode":"77056","cc":"US","city":"Houston","state":"TX","country":"United States","formattedAddress":["1700 Post Oak Blvd, Ste 180","Houston, TX 77056","United States"],"crossStreet":null,"neighborhood":null,"geolocation":{"type":"Point","coordinates":[-95.4622631,29.7493275]}},{"address":"823 King St","latitude":38.8055476372,"longitude":-77.0489815119,"labeledLatLngs":[{"label":"display","lat":38.8055476372,"lng":-77.0489815119},{"label":"entrance","lat":38.805422,"lng":-77.049015}],"postalCode":"22314","cc":"US","city":"Alexandria","state":"VA","country":"United States","formattedAddress":["823 King St (N Alfred St)","Alexandria, VA 22314","United States"],"crossStreet":"N Alfred St","neighborhood":null,"geolocation":{"type":"Point","coordinates":[-77.0489815119,38.8055476372]}},{"address":"197 Meserole St","latitude":40.7083345452,"longitude":-73.9408161065,"labeledLatLngs":[{"label":"display","lat":40.7083345452,"lng":-73.9408161065}],"postalCode":"11206","cc":"US","city":"Brooklyn","state":"NY","country":"United States","formattedAddress":["197 Meserole St (btwn Bushwick Ave & Humboldt St)","Brooklyn, NY 11206","United States"],"crossStreet":"btwn Bushwick Ave & Humboldt St","neighborhood":null,"geolocation":{"type":"Point","coordinates":[-73.9408161065,40.7083345452]}},{"address":"2000 Union St","latitude":37.7976259,"longitude":-122.4324404,"labeledLatLngs":[{"label":"display","lat":37.7976259,"lng":-122.4324404}],"postalCode":"94123","cc":"US","city":"San Francisco","state":"CA","country":"United States","formattedAddress":["2000 Union St","San Francisco, CA 94123","United States"],"crossStreet":null,"neighborhood":"Union Street","geolocation":{"type":"Point","coordinates":[-122.4324404,37.7976259]}},{"address":"2963 Michelson Dr","latitude":33.6719512,"longitude":-117.8459623,"labeledLatLngs":[{"label":"display","lat":33.6719512,"lng":-117.8459623},{"label":"entrance","lat":33.672082,"lng":-117.846395}],"postalCode":"92612","cc":"US","city":"Irvine","state":"CA","country":"United States","formattedAddress":["2963 Michelson Dr (btwn Jamboree Rd & Carlson Ave)","Irvine, CA 92612","United States"],"crossStreet":"btwn Jamboree Rd & Carlson Ave","neighborhood":null,"geolocation":{"type":"Point","coordinates":[-117.8459623,33.6719512]}},{"address":null,"latitude":30.263856,"longitude":-97.731616,"labeledLatLngs":[{"label":"display","lat":30.263856,"lng":-97.731616}],"postalCode":"78702","cc":"US","city":"Austin","state":"TX","country":"United States","formattedAddress":["Austin, TX 78702","United States"],"crossStreet":null,"neighborhood":null,"geolocation":{"type":"Point","coordinates":[-97.731616,30.263856]}},{"address":"938 W Webster Ave","latitude":41.9218667469,"longitude":-87.6524527564,"labeledLatLngs":[{"label":"display","lat":41.9218667469,"lng":-87.6524527564},{"label":"entrance","lat":41.921849,"lng":-87.652517}],"postalCode":"60614","cc":"US","city":"Chicago","state":"IL","country":"United States","formattedAddress":["938 W Webster Ave (at Bissell St)","Chicago, IL 60614","United States"],"crossStreet":"at Bissell St","neighborhood":"North Side","geolocation":{"type":"Point","coordinates":[-87.6524527564,41.9218667469]}},{"address":"1512 Connecticut Ave NW","latitude":38.9104486752,"longitude":-77.0442438126,"labeledLatLngs":[{"label":"display","lat":38.9104486752,"lng":-77.0442438126}],"postalCode":"20036","cc":"US","city":"Washington","state":"D.C.","country":"United States","formattedAddress":["1512 Connecticut Ave NW (btwn Dupont Cir & Q St NW)","Washington, D.C. 20036","United States"],"crossStreet":"btwn Dupont Cir & Q St NW","neighborhood":null,"geolocation":{"type":"Point","coordinates":[-77.0442438126,38.9104486752]}}]